{"name":"Aachen","id":1,"nametype":"Valid","recclass":"L5","mass":21,"fall":"Fell","year":"1880-01-01T00:00:00.000Z","reclat":50.775,"reclong":6.08333,"geolocation":{"latitude":50.775,"longitude":6.08333}}
{"name":"Aarhus","id":2,"nametype":"Valid","recclass":"H6","mass":720,"fall":"Fell","year":"1951-01-01T00:00:00.000Z","reclat":56.18333,"reclong":10.23333,"geolocation":{"latitude":56.18333,"longitude":10.23333}}
{"name":"Abee","id":6,"nametype":"Valid","recclass":"EH4","mass":107000,"fall":"Fell","year":"1952-01-01T00:00:00.000Z","reclat":54.21667,"reclong":-113,"geolocation":{"latitude":54.21667,"longitude":-113}}
{"name":"Acapulco","id":10,"nametype":"Valid","recclass":"Acapulcoite","mass":1914,"fall":"Fell","year":"1976-01-01T00:00:00.000Z","reclat":16.88333,"reclong":-99.9,"geolocation":{"latitude":16.88333,"longitude":-99.9}}
{"name":"Achiras","id":370,"nametype":"Valid","recclass":"L6","mass":780,"fall":"Fell","year":"1902-01-01T00:00:00.000Z","reclat":-33.16667,"reclong":-64.95,"geolocation":{"latitude":-33.16667,"longitude":-64.95}}
{"name":"Adhi Kot","id":379,"nametype":"Valid","recclass":"EH4","mass":4239,"fall":"Fell","year":"1919-01-01T00:00:00.000Z","reclat":32.1,"reclong":71.8,"geolocation":{"latitude":32.1,"longitude":71.8}}
{"name":"Adzhi-Bogdo (stone)","id":390,"nametype":"Valid","recclass":"LL3-6","mass":910,"fall":"Fell","year":"1949-01-01T00:00:00.000Z","reclat":44.83333,"reclong":95.16667,"geolocation":{"latitude":44.83333,"longitude":95.16667}}
{"name":"Agen","id":392,"nametype":"Valid","recclass":"H5","mass":30000,"fall":"Fell","year":"1814-01-01T00:00:00.000Z","reclat":44.21667,"reclong":0.61667,"geolocation":{"latitude":44.21667,"longitude":0.61667}}
{"name":"Aguada","id":398,"nametype":"Valid","recclass":"L6","mass":1620,"fall":"Fell","year":"1930-01-01T00:00:00.000Z","reclat":-31.6,"reclong":-65.23333,"geolocation":{"latitude":-31.6,"longitude":-65.23333}}
{"name":"Aguila Blanca","id":417,"nametype":"Valid","recclass":"L","mass":1440,"fall":"Fell","year":"1920-01-01T00:00:00.000Z","reclat":-30.86667,"reclong":-64.55,"geolocation":{"latitude":-30.86667,"longitude":-64.55}}
{"name":"Aioun el Atrouss","id":423,"nametype":"Valid","recclass":"Diogenite-pm","mass":1000,"fall":"Fell","year":"1974-01-01T00:00:00.000Z","reclat":16.39806,"reclong":-9.57028,"geolocation":{"latitude":16.39806,"longitude":-9.57028}}
{"name":"Aïr","id":424,"nametype":"Valid","recclass":"L6","mass":24000,"fall":"Fell","year":"1925-01-01T00:00:00.000Z","reclat":19.08333,"reclong":8.38333,"geolocation":{"latitude":19.08333,"longitude":8.38333}}
{"name":"Aire-sur-la-Lys","id":425,"nametype":"Valid","recclass":"Uknown","fall":"Fell","year":"1769-01-01T00:00:00.000Z","reclat":50.66667,"reclong":2.33333,"geolocation":{"latitude":50.66667,"longitude":2.33333}}
{"name":"Akaba","id":426,"nametype":"Valid","recclass":"L6","mass":779,"fall":"Fell","year":"1949-01-01T00:00:00.000Z","reclat":29.51667,"reclong":35.05,"geolocation":{"latitude":29.51667,"longitude":35.05}}
{"name":"Akbarpur","id":427,"nametype":"Valid","recclass":"H4","mass":1800,"fall":"Fell","year":"1838-01-01T00:00:00.000Z","reclat":29.71667,"reclong":77.95,"geolocation":{"latitude":29.71667,"longitude":77.95}}
{"name":"Akwanga","id":432,"nametype":"Valid","recclass":"H","mass":3000,"fall":"Fell","year":"1959-01-01T00:00:00.000Z","reclat":8.91667,"reclong":8.43333,"geolocation":{"latitude":8.91667,"longitude":8.43333}}
{"name":"Akyumak","id":433,"nametype":"Valid","recclass":"Iron, IVA","mass":50000,"fall":"Fell","year":"1981-01-01T00:00:00.000Z","reclat":39.91667,"reclong":42.81667,"geolocation":{"latitude":39.91667,"longitude":42.81667}}
{"name":"Al Rais","id":446,"nametype":"Valid","recclass":"CR2-an","mass":160,"fall":"Fell","year":"1957-01-01T00:00:00.000Z","reclat":24.41667,"reclong":39.51667,"geolocation":{"latitude":24.41667,"longitude":39.51667}}
{"name":"Al Zarnkh","id":447,"nametype":"Valid","recclass":"LL5","mass":700,"fall":"Fell","year":"2001-01-01T00:00:00.000Z","reclat":13.66033,"reclong":28.96,"geolocation":{"latitude":13.66033,"longitude":28.96}}
{"name":"Alais","id":448,"nametype":"Valid","recclass":"CI1","mass":6000,"fall":"Fell","year":"1806-01-01T00:00:00.000Z","reclat":44.11667,"reclong":4.08333,"geolocation":{"latitude":44.11667,"longitude":4.08333}}
{"name":"Albareto","id":453,"nametype":"Valid","recclass":"L/LL4","mass":2000,"fall":"Fell","year":"1766-01-01T00:00:00.000Z","reclat":44.65,"reclong":11.01667,"geolocation":{"latitude":44.65,"longitude":11.01667}}
{"name":"Alberta","id":454,"nametype":"Valid","recclass":"L","mass":625,"fall":"Fell","year":"1949-01-01T00:00:00.000Z","reclat":2,"reclong":22.66667,"geolocation":{"latitude":2,"longitude":22.66667}}
{"name":"Alby sur Chéran","id":458,"nametype":"Valid","recclass":"Eucrite-mmict","mass":252,"fall":"Fell","year":"2002-01-01T00:00:00.000Z","reclat":45.82133,"reclong":6.01533,"geolocation":{"latitude":45.82133,"longitude":6.01533}}
{"name":"Aldsworth","id":461,"nametype":"Valid","recclass":"LL5","mass":700,"fall":"Fell","year":"1835-01-01T00:00:00.000Z","reclat":51.78333,"reclong":-1.78333,"geolocation":{"latitude":51.78333,"longitude":-1.78333}}
{"name":"Aleppo","id":462,"nametype":"Valid","recclass":"L6","mass":3200,"fall":"Fell","year":"1873-01-01T00:00:00.000Z","reclat":36.23333,"reclong":37.13333,"geolocation":{"latitude":36.23333,"longitude":37.13333}}
{"name":"Alessandria","id":463,"nametype":"Valid","recclass":"H5","mass":908,"fall":"Fell","year":"1860-01-01T00:00:00.000Z","reclat":44.88333,"reclong":8.75,"geolocation":{"latitude":44.88333,"longitude":8.75}}
{"name":"Alexandrovsky","id":465,"nametype":"Valid","recclass":"H4","mass":9251,"fall":"Fell","year":"1900-01-01T00:00:00.000Z","reclat":50.95,"reclong":31.81667,"geolocation":{"latitude":50.95,"longitude":31.81667}}
{"name":"Alfianello","id":466,"nametype":"Valid","recclass":"L6","mass":228000,"fall":"Fell","year":"1883-01-01T00:00:00.000Z","reclat":45.26667,"reclong":10.15,"geolocation":{"latitude":45.26667,"longitude":10.15}}
{"name":"Allegan","id":2276,"nametype":"Valid","recclass":"H5","mass":32000,"fall":"Fell","year":"1899-01-01T00:00:00.000Z","reclat":42.53333,"reclong":-85.88333,"geolocation":{"latitude":42.53333,"longitude":-85.88333}}
{"name":"Allende","id":2278,"nametype":"Valid","recclass":"CV3","mass":2000000,"fall":"Fell","year":"1969-01-01T00:00:00.000Z","reclat":26.96667,"reclong":-105.31667,"geolocation":{"latitude":26.96667,"longitude":-105.31667}}
{"name":"Almahata Sitta","id":48915,"nametype":"Valid","recclass":"Ureilite-an","mass":3950,"fall":"Fell","year":"2008-01-01T00:00:00.000Z","reclat":20.74575,"reclong":32.41275,"geolocation":{"latitude":20.74575,"longitude":32.41275}}
{"name":"Alta'ameem","id":2284,"nametype":"Valid","recclass":"LL5","mass":6000,"fall":"Fell","year":"1977-01-01T00:00:00.000Z","reclat":35.27333,"reclong":44.21556,"geolocation":{"latitude":35.27333,"longitude":44.21556}}
{"name":"Ambapur Nagla","id":2290,"nametype":"Valid","recclass":"H5","mass":6400,"fall":"Fell","year":"1895-01-01T00:00:00.000Z","reclat":27.66667,"reclong":78.25,"geolocation":{"latitude":27.66667,"longitude":78.25}}
{"name":"Andhara","id":2294,"nametype":"Valid","recclass":"Stone-uncl","mass":2700,"fall":"Fell","year":"1880-01-01T00:00:00.000Z","reclat":26.58333,"reclong":85.56667,"geolocation":{"latitude":26.58333,"longitude":85.56667}}
{"name":"Andover","id":2295,"nametype":"Valid","recclass":"L6","mass":3200,"fall":"Fell","year":"1898-01-01T00:00:00.000Z","reclat":44.61667,"reclong":-70.75,"geolocation":{"latitude":44.61667,"longitude":-70.75}}
{"name":"Andreevka","id":2296,"nametype":"Valid","recclass":"L3","mass":600,"fall":"Fell","year":"1969-01-01T00:00:00.000Z","reclat":48.7,"reclong":37.5,"geolocation":{"latitude":48.7,"longitude":37.5}}
{"name":"Andura","id":2298,"nametype":"Valid","recclass":"H6","mass":17900,"fall":"Fell","year":"1939-01-01T00:00:00.000Z","reclat":20.88333,"reclong":76.86667,"geolocation":{"latitude":20.88333,"longitude":76.86667}}
{"name":"Northwest Africa 5815","id":50693,"nametype":"Valid","recclass":"L5","mass":256.8,"fall":"Found","reclat":0,"reclong":0,"geolocation":{"latitude":0,"longitude":0}}
{"name":"Angers","id":2301,"nametype":"Valid","recclass":"L6","fall":"Fell","year":"1822-01-01T00:00:00.000Z","reclat":47.46667,"reclong":-0.55,"geolocation":{"latitude":47.46667,"longitude":-0.55}}
{"name":"Angra dos Reis (stone)","id":2302,"nametype":"Valid","recclass":"Angrite","mass":1500,"fall":"Fell","year":"1869-01-01T00:00:00.000Z","reclat":-22.96667,"reclong":-44.31667,"geolocation":{"latitude":-22.96667,"longitude":-44.31667}}
{"name":"Ankober","id":2304,"nametype":"Valid","recclass":"H4","mass":6500,"fall":"Fell","year":"1942-01-01T00:00:00.000Z","reclat":9.53333,"reclong":39.71667,"geolocation":{"latitude":9.53333,"longitude":39.71667}}
{"name":"Anlong","id":2305,"nametype":"Valid","recclass":"H5","mass":2500,"fall":"Fell","year":"1971-01-01T00:00:00.000Z","reclat":25.15,"reclong":105.18333,"geolocation":{"latitude":25.15,"longitude":105.18333}}
{"name":"Aomori","id":2313,"nametype":"Valid","recclass":"L6","mass":320,"fall":"Fell","year":"1984-01-01T00:00:00.000Z","reclat":40.81056,"reclong":140.78555,"geolocation":{"latitude":40.81056,"longitude":140.78555}}
{"name":"Appley Bridge","id":2318,"nametype":"Valid","recclass":"LL6","mass":15000,"fall":"Fell","year":"1914-01-01T00:00:00.000Z","reclat":53.58333,"reclong":-2.71667,"geolocation":{"latitude":53.58333,"longitude":-2.71667}}
{"name":"Apt","id":2320,"nametype":"Valid","recclass":"L6","mass":3200,"fall":"Fell","year":"1803-01-01T00:00:00.000Z","reclat":43.86667,"reclong":5.38333,"geolocation":{"latitude":43.86667,"longitude":5.38333}}
{"name":"Arbol Solo","id":2325,"nametype":"Valid","recclass":"H5","mass":810,"fall":"Fell","year":"1954-01-01T00:00:00.000Z","reclat":-33,"reclong":-66,"geolocation":{"latitude":-33,"longitude":-66}}
{"name":"Archie","id":2329,"nametype":"Valid","recclass":"H6","mass":5070,"fall":"Fell","year":"1932-01-01T00:00:00.000Z","reclat":38.5,"reclong":-94.3,"geolocation":{"latitude":38.5,"longitude":-94.3}}
{"name":"Arroyo Aguiar","id":2340,"nametype":"Valid","recclass":"H5","mass":7450,"fall":"Fell","year":"1950-01-01T00:00:00.000Z","reclat":-31.41667,"reclong":-60.66667,"geolocation":{"latitude":-31.41667,"longitude":-60.66667}}
{"name":"Asco","id":2345,"nametype":"Valid","recclass":"H6","mass":41,"fall":"Fell","year":"1805-01-01T00:00:00.000Z","reclat":42.45,"reclong":9.03333,"geolocation":{"latitude":42.45,"longitude":9.03333}}
{"name":"Ash Creek","id":48954,"nametype":"Valid","recclass":"L6","mass":9500,"fall":"Fell","year":"2009-01-01T00:00:00.000Z","reclat":31.805,"reclong":-97.01,"geolocation":{"latitude":31.805,"longitude":-97.01}}
{"name":"Ashdon","id":2346,"nametype":"Valid","recclass":"L6","mass":1300,"fall":"Fell","year":"1923-01-01T00:00:00.000Z","reclat":52.05,"reclong":0.3,"geolocation":{"latitude":52.05,"longitude":0.3}}
{"name":"Assisi","id":2353,"nametype":"Valid","recclass":"H5","mass":2000,"fall":"Fell","year":"1886-01-01T00:00:00.000Z","reclat":43.03333,"reclong":12.55,"geolocation":{"latitude":43.03333,"longitude":12.55}}
{"name":"Atarra","id":4883,"nametype":"Valid","recclass":"L4","mass":1280,"fall":"Fell","year":"1920-01-01T00:00:00.000Z","reclat":25.25417,"reclong":80.625,"geolocation":{"latitude":25.25417,"longitude":80.625}}
{"name":"Atemajac","id":4884,"nametype":"Valid","recclass":"L6","mass":94.2,"fall":"Fell","year":"1896-01-01T00:00:00.000Z","reclat":20.06667,"reclong":-103.66667,"geolocation":{"latitude":20.06667,"longitude":-103.66667}}
{"name":"Athens","id":4885,"nametype":"Valid","recclass":"LL6","mass":265,"fall":"Fell","year":"1933-01-01T00:00:00.000Z","reclat":34.75,"reclong":-87,"geolocation":{"latitude":34.75,"longitude":-87}}
{"name":"Atoka","id":4888,"nametype":"Valid","recclass":"L6","mass":1384.2,"fall":"Fell","year":"1945-01-01T00:00:00.000Z","reclat":34.31667,"reclong":-96.15,"geolocation":{"latitude":34.31667,"longitude":-96.15}}
{"name":"Aubres","id":4893,"nametype":"Valid","recclass":"Aubrite","mass":800,"fall":"Fell","year":"1836-01-01T00:00:00.000Z","reclat":44.38333,"reclong":5.16667,"geolocation":{"latitude":44.38333,"longitude":5.16667}}
{"name":"Aumale","id":4899,"nametype":"Valid","recclass":"L6","mass":50000,"fall":"Fell","year":"1865-01-01T00:00:00.000Z","reclat":36.16667,"reclong":3.66667,"geolocation":{"latitude":36.16667,"longitude":3.66667}}
{"name":"Aumieres","id":4900,"nametype":"Valid","recclass":"L6","mass":2000,"fall":"Fell","year":"1842-01-01T00:00:00.000Z","reclat":44.33333,"reclong":3.23333,"geolocation":{"latitude":44.33333,"longitude":3.23333}}
{"name":"Ausson","id":4903,"nametype":"Valid","recclass":"L5","mass":50000,"fall":"Fell","year":"1858-01-01T00:00:00.000Z","reclat":43.08333,"reclong":0.58333,"geolocation":{"latitude":43.08333,"longitude":0.58333}}
{"name":"Avanhandava","id":4905,"nametype":"Valid","recclass":"H4","mass":9330,"fall":"Fell","year":"1952-01-01T00:00:00.000Z","reclat":-21.46028,"reclong":-49.95083,"geolocation":{"latitude":-21.46028,"longitude":-49.95083}}
{"name":"Avce","id":4906,"nametype":"Valid","recclass":"Iron, IIAB","mass":1230,"fall":"Fell","year":"1908-01-01T00:00:00.000Z","reclat":46,"reclong":13.5,"geolocation":{"latitude":46,"longitude":13.5}}
{"name":"Avilez","id":4907,"nametype":"Valid","recclass":"H","mass":146,"fall":"Fell","year":"1855-01-01T00:00:00.000Z","reclat":25,"reclong":-103.5,"geolocation":{"latitude":25,"longitude":-103.5}}
{"name":"Awere","id":4910,"nametype":"Valid","recclass":"L4","mass":134,"fall":"Fell","year":"1968-01-01T00:00:00.000Z","reclat":2.71667,"reclong":32.83333,"geolocation":{"latitude":2.71667,"longitude":32.83333}}
{"name":"Aztec","id":4913,"nametype":"Valid","recclass":"L6","mass":2830,"fall":"Fell","year":"1938-01-01T00:00:00.000Z","reclat":36.8,"reclong":-108,"geolocation":{"latitude":36.8,"longitude":-108}}
{"name":"Bachmut","id":4917,"nametype":"Valid","recclass":"L6","mass":18000,"fall":"Fell","year":"1814-01-01T00:00:00.000Z","reclat":48.6,"reclong":38,"geolocation":{"latitude":48.6,"longitude":38}}
{"name":"Bahjoi","id":4922,"nametype":"Valid","recclass":"Iron, IAB-sLL","mass":10322,"fall":"Fell","year":"1934-01-01T00:00:00.000Z","reclat":28.48333,"reclong":78.5,"geolocation":{"latitude":28.48333,"longitude":78.5}}
{"name":"Bald Mountain","id":4925,"nametype":"Valid","recclass":"L4","mass":3700,"fall":"Fell","year":"1929-01-01T00:00:00.000Z","reclat":35.96667,"reclong":-82.48333,"geolocation":{"latitude":35.96667,"longitude":-82.48333}}
{"name":"Baldwyn","id":4926,"nametype":"Valid","recclass":"L6","mass":345,"fall":"Fell","year":"1922-01-01T00:00:00.000Z","reclat":34.5,"reclong":-88.66667,"geolocation":{"latitude":34.5,"longitude":-88.66667}}
{"name":"Bali","id":4928,"nametype":"Valid","recclass":"CV3","mass":1000,"fall":"Fell","year":"1907-01-01T00:00:00.000Z","reclat":5.38333,"reclong":16.38333,"geolocation":{"latitude":5.38333,"longitude":16.38333}}
{"name":"Ban Rong Du","id":4934,"nametype":"Valid","recclass":"Iron, ungrouped","mass":16700,"fall":"Fell","year":"1993-01-01T00:00:00.000Z","reclat":16.66667,"reclong":101.18333,"geolocation":{"latitude":16.66667,"longitude":101.18333}}
{"name":"Bandong","id":4935,"nametype":"Valid","recclass":"LL6","mass":11500,"fall":"Fell","year":"1871-01-01T00:00:00.000Z","reclat":-6.91667,"reclong":107.6,"geolocation":{"latitude":-6.91667,"longitude":107.6}}
{"name":"Bansur","id":4936,"nametype":"Valid","recclass":"L6","mass":15000,"fall":"Fell","year":"1892-01-01T00:00:00.000Z","reclat":27.7,"reclong":76.33333,"geolocation":{"latitude":27.7,"longitude":76.33333}}
{"name":"Banswal","id":4937,"nametype":"Valid","recclass":"L5","mass":14,"fall":"Fell","year":"1913-01-01T00:00:00.000Z","reclat":30.4,"reclong":78.2,"geolocation":{"latitude":30.4,"longitude":78.2}}
{"name":"Banten","id":4938,"nametype":"Valid","recclass":"CM2","mass":629,"fall":"Fell","year":"1933-01-01T00:00:00.000Z","reclat":-6.33333,"reclong":106,"geolocation":{"latitude":-6.33333,"longitude":106}}
{"name":"Barbotan","id":4942,"nametype":"Valid","recclass":"H5","mass":6400,"fall":"Fell","year":"1790-01-01T00:00:00.000Z","reclat":43.95,"reclong":-0.05,"geolocation":{"latitude":43.95,"longitude":-0.05}}
{"name":"Barcelona (stone)","id":4944,"nametype":"Valid","recclass":"OC","fall":"Fell","year":"1704-01-01T00:00:00.000Z","reclat":41.36667,"reclong":2.16667,"geolocation":{"latitude":41.36667,"longitude":2.16667}}
{"name":"Barea","id":4946,"nametype":"Valid","recclass":"Mesosiderite-A1","mass":3200,"fall":"Fell","year":"1842-01-01T00:00:00.000Z","reclat":42.38333,"reclong":-2.5,"geolocation":{"latitude":42.38333,"longitude":-2.5}}
{"name":"Barnaul","id":4947,"nametype":"Valid","recclass":"H5","mass":23.2,"fall":"Fell","year":"1904-01-01T00:00:00.000Z","reclat":52.73333,"reclong":84.08333,"geolocation":{"latitude":52.73333,"longitude":84.08333}}
{"name":"Barntrup","id":4948,"nametype":"Valid","recclass":"LL4","mass":17,"fall":"Fell","year":"1886-01-01T00:00:00.000Z","reclat":52,"reclong":9.1,"geolocation":{"latitude":52,"longitude":9.1}}
{"name":"Baroti","id":4949,"nametype":"Valid","recclass":"L6","mass":4500,"fall":"Fell","year":"1910-01-01T00:00:00.000Z","reclat":31.61667,"reclong":76.8,"geolocation":{"latitude":31.61667,"longitude":76.8}}
{"name":"Barwell","id":4954,"nametype":"Valid","recclass":"L5","mass":44000,"fall":"Fell","year":"1965-01-01T00:00:00.000Z","reclat":52.56528,"reclong":-1.33972,"geolocation":{"latitude":52.56528,"longitude":-1.33972}}
{"name":"Bassikounou","id":44876,"nametype":"Valid","recclass":"H5","mass":29560,"fall":"Fell","year":"2006-01-01T00:00:00.000Z","reclat":15.78333,"reclong":-5.9,"geolocation":{"latitude":15.78333,"longitude":-5.9}}
{"name":"Baszkówka","id":4957,"nametype":"Valid","recclass":"L5","mass":15500,"fall":"Fell","year":"1994-01-01T00:00:00.000Z","reclat":52.03333,"reclong":20.93583,"geolocation":{"latitude":52.03333,"longitude":20.93583}}
{"name":"Bath","id":4974,"nametype":"Valid","recclass":"H4","mass":21000,"fall":"Fell","year":"1892-01-01T00:00:00.000Z","reclat":45.41667,"reclong":-98.31667,"geolocation":{"latitude":45.41667,"longitude":-98.31667}}
{"name":"Bath Furnace","id":4975,"nametype":"Valid","recclass":"L6","mass":86000,"fall":"Fell","year":"1902-01-01T00:00:00.000Z","reclat":38.25,"reclong":-83.75,"geolocation":{"latitude":38.25,"longitude":-83.75}}
{"name":"Battle Mountain","id":56133,"nametype":"Valid","recclass":"L6","mass":2900,"fall":"Fell","year":"2012-01-01T00:00:00.000Z","reclat":40.66813,"reclong":-117.18913,"geolocation":{"latitude":40.66813,"longitude":-117.18913}}
{"name":"Bawku","id":4976,"nametype":"Valid","recclass":"LL5","mass":1557,"fall":"Fell","year":"1989-01-01T00:00:00.000Z","reclat":11.08333,"reclong":-0.18333,"geolocation":{"latitude":11.08333,"longitude":-0.18333}}
{"name":"Baxter","id":4977,"nametype":"Valid","recclass":"L6","mass":611,"fall":"Fell","year":"1916-01-01T00:00:00.000Z","reclat":36.75,"reclong":-93.5,"geolocation":{"latitude":36.75,"longitude":-93.5}}
{"name":"Beardsley","id":4984,"nametype":"Valid","recclass":"H5","mass":16000,"fall":"Fell","year":"1929-01-01T00:00:00.000Z","reclat":39.8,"reclong":-101.2,"geolocation":{"latitude":39.8,"longitude":-101.2}}
{"name":"Beaver Creek","id":4986,"nametype":"Valid","recclass":"H5","mass":14000,"fall":"Fell","year":"1893-01-01T00:00:00.000Z","reclat":51.16667,"reclong":-117.33333,"geolocation":{"latitude":51.16667,"longitude":-117.33333}}
{"name":"Beddgelert","id":4993,"nametype":"Valid","recclass":"H5","mass":794,"fall":"Fell","year":"1949-01-01T00:00:00.000Z","reclat":53.01667,"reclong":-4.1,"geolocation":{"latitude":53.01667,"longitude":-4.1}}
{"name":"Bells","id":5005,"nametype":"Valid","recclass":"C2-ung","mass":375,"fall":"Fell","year":"1961-01-01T00:00:00.000Z","reclat":33.6,"reclong":-96.46667,"geolocation":{"latitude":33.6,"longitude":-96.46667}}
{"name":"Belville","id":5009,"nametype":"Valid","recclass":"OC","fall":"Fell","year":"1937-01-01T00:00:00.000Z","reclat":-32.33333,"reclong":-64.86667,"geolocation":{"latitude":-32.33333,"longitude":-64.86667}}
{"name":"Benares (a)","id":5011,"nametype":"Valid","recclass":"LL4","mass":3700,"fall":"Fell","year":"1798-01-01T00:00:00.000Z","reclat":25.36667,"reclong":82.91667,"geolocation":{"latitude":25.36667,"longitude":82.91667}}
{"name":"Benguerir","id":30443,"nametype":"Valid","recclass":"LL6","mass":25000,"fall":"Fell","year":"2004-01-01T00:00:00.000Z","reclat":32.25,"reclong":-8.15,"geolocation":{"latitude":32.25,"longitude":-8.15}}
{"name":"Beni M'hira","id":5018,"nametype":"Valid","recclass":"L6","mass":19000,"fall":"Fell","year":"2001-01-01T00:00:00.000Z","reclat":32.86667,"reclong":10.8,"geolocation":{"latitude":32.86667,"longitude":10.8}}
{"name":"Benld","id":5021,"nametype":"Valid","recclass":"H6","mass":1770.5,"fall":"Fell","year":"1938-01-01T00:00:00.000Z","reclat":39.08333,"reclong":-89.15,"geolocation":{"latitude":39.08333,"longitude":-89.15}}
{"name":"Benoni","id":5023,"nametype":"Valid","recclass":"H6","mass":3880,"fall":"Fell","year":"1943-01-01T00:00:00.000Z","reclat":-26.16667,"reclong":28.41667,"geolocation":{"latitude":-26.16667,"longitude":28.41667}}
{"name":"Bensour","id":5024,"nametype":"Valid","recclass":"LL6","mass":45000,"fall":"Fell","year":"2002-01-01T00:00:00.000Z","reclat":30,"reclong":-7,"geolocation":{"latitude":30,"longitude":-7}}
{"name":"Benton","id":5026,"nametype":"Valid","recclass":"LL6","mass":2840,"fall":"Fell","year":"1949-01-01T00:00:00.000Z","reclat":45.95,"reclong":-67.55,"geolocation":{"latitude":45.95,"longitude":-67.55}}
{"name":"Berduc","id":48975,"nametype":"Valid","recclass":"L6","mass":270,"fall":"Fell","year":"2008-01-01T00:00:00.000Z","reclat":-31.91,"reclong":-58.32833,"geolocation":{"latitude":-31.91,"longitude":-58.32833}}
{"name":"Béréba","id":5028,"nametype":"Valid","recclass":"Eucrite-mmict","mass":18000,"fall":"Fell","year":"1924-01-01T00:00:00.000Z","reclat":11.65,"reclong":-3.65,"geolocation":{"latitude":11.65,"longitude":-3.65}}
{"name":"Berlanguillas","id":5029,"nametype":"Valid","recclass":"L6","mass":1440,"fall":"Fell","year":"1811-01-01T00:00:00.000Z","reclat":41.68333,"reclong":-3.8,"geolocation":{"latitude":41.68333,"longitude":-3.8}}
{"name":"Berthoud","id":47355,"nametype":"Valid","recclass":"Eucrite-mmict","mass":960,"fall":"Fell","year":"2004-01-01T00:00:00.000Z","reclat":40.30583,"reclong":-105.02325,"geolocation":{"latitude":40.30583,"longitude":-105.02325}}
{"name":"Bethlehem","id":5032,"nametype":"Valid","recclass":"H","mass":13.9,"fall":"Fell","year":"1859-01-01T00:00:00.000Z","reclat":42.53333,"reclong":-73.83333,"geolocation":{"latitude":42.53333,"longitude":-73.83333}}
{"name":"Beuste","id":5034,"nametype":"Valid","recclass":"L5","mass":2000,"fall":"Fell","year":"1859-01-01T00:00:00.000Z","reclat":43.21667,"reclong":-0.23333,"geolocation":{"latitude":43.21667,"longitude":-0.23333}}
{"name":"Beyrout","id":5035,"nametype":"Valid","recclass":"LL3.8","mass":1100,"fall":"Fell","year":"1921-01-01T00:00:00.000Z","reclat":33.88333,"reclong":35.5,"geolocation":{"latitude":33.88333,"longitude":35.5}}
{"name":"Bhagur","id":5037,"nametype":"Valid","recclass":"L6","mass":18,"fall":"Fell","year":"1877-01-01T00:00:00.000Z","reclat":20.88333,"reclong":74.83333,"geolocation":{"latitude":20.88333,"longitude":74.83333}}
{"name":"Bhawad","id":36591,"nametype":"Valid","recclass":"LL6","mass":678,"fall":"Fell","year":"2002-01-01T00:00:00.000Z","reclat":26.50833,"reclong":73.11528,"geolocation":{"latitude":26.50833,"longitude":73.11528}}
{"name":"Bherai","id":5039,"nametype":"Valid","recclass":"L6","mass":100,"fall":"Fell","year":"1893-01-01T00:00:00.000Z","reclat":20.83333,"reclong":71.46667,"geolocation":{"latitude":20.83333,"longitude":71.46667}}
{"name":"Bhola","id":5040,"nametype":"Valid","recclass":"LL3-6","mass":1047,"fall":"Fell","year":"1940-01-01T00:00:00.000Z","reclat":22.68333,"reclong":90.65,"geolocation":{"latitude":22.68333,"longitude":90.65}}
{"name":"Bholghati","id":5041,"nametype":"Valid","recclass":"Howardite","mass":2500,"fall":"Fell","year":"1905-01-01T00:00:00.000Z","reclat":22.08333,"reclong":86.9,"geolocation":{"latitude":22.08333,"longitude":86.9}}
{"name":"Bialystok","id":5042,"nametype":"Valid","recclass":"Eucrite-pmict","mass":4000,"fall":"Fell","year":"1827-01-01T00:00:00.000Z","reclat":53.1,"reclong":23.2,"geolocation":{"latitude":53.1,"longitude":23.2}}
{"name":"Bielokrynitschie","id":5043,"nametype":"Valid","recclass":"H4","mass":1900,"fall":"Fell","year":"1887-01-01T00:00:00.000Z","reclat":50.13333,"reclong":27.16667,"geolocation":{"latitude":50.13333,"longitude":27.16667}}
{"name":"Bilanga","id":5045,"nametype":"Valid","recclass":"Diogenite","mass":25000,"fall":"Fell","year":"1999-01-01T00:00:00.000Z","reclat":12.45,"reclong":-0.08333,"geolocation":{"latitude":12.45,"longitude":-0.08333}}
{"name":"Binningup","id":5051,"nametype":"Valid","recclass":"H5","mass":488.1,"fall":"Fell","year":"1984-01-01T00:00:00.000Z","reclat":-33.15639,"reclong":115.67639,"geolocation":{"latitude":-33.15639,"longitude":115.67639}}
{"name":"Birni N'konni","id":5056,"nametype":"Valid","recclass":"H4","mass":560,"fall":"Fell","year":"1923-01-01T00:00:00.000Z","reclat":13.76667,"reclong":5.3,"geolocation":{"latitude":13.76667,"longitude":5.3}}
{"name":"Bishopville","id":5059,"nametype":"Valid","recclass":"Aubrite","mass":6000,"fall":"Fell","year":"1843-01-01T00:00:00.000Z","reclat":34.16667,"reclong":-80.28333,"geolocation":{"latitude":34.16667,"longitude":-80.28333}}
{"name":"Bishunpur","id":5060,"nametype":"Valid","recclass":"LL3.15","mass":1039,"fall":"Fell","year":"1895-01-01T00:00:00.000Z","reclat":25.38333,"reclong":82.6,"geolocation":{"latitude":25.38333,"longitude":82.6}}
{"name":"Bjelaja Zerkov","id":5063,"nametype":"Valid","recclass":"H6","mass":1850,"fall":"Fell","year":"1796-01-01T00:00:00.000Z","reclat":49.78333,"reclong":30.16667,"geolocation":{"latitude":49.78333,"longitude":30.16667}}
{"name":"Bjurböle","id":5064,"nametype":"Valid","recclass":"L/LL4","mass":330000,"fall":"Fell","year":"1899-01-01T00:00:00.000Z","reclat":60.4,"reclong":25.8,"geolocation":{"latitude":60.4,"longitude":25.8}}
{"name":"Black Moshannan Park","id":5065,"nametype":"Valid","recclass":"L5","mass":705,"fall":"Fell","year":"1941-01-01T00:00:00.000Z","reclat":40.91667,"reclong":-78.08333,"geolocation":{"latitude":40.91667,"longitude":-78.08333}}
{"name":"Blackwell","id":5068,"nametype":"Valid","recclass":"L5","mass":2381,"fall":"Fell","year":"1906-01-01T00:00:00.000Z","reclat":36.83333,"reclong":-97.33333,"geolocation":{"latitude":36.83333,"longitude":-97.33333}}
{"name":"Blanket","id":5071,"nametype":"Valid","recclass":"L6","mass":5100,"fall":"Fell","year":"1909-01-01T00:00:00.000Z","reclat":31.83333,"reclong":-98.83333,"geolocation":{"latitude":31.83333,"longitude":-98.83333}}
{"name":"Blansko","id":5072,"nametype":"Valid","recclass":"H6","mass":470,"fall":"Fell","year":"1833-01-01T00:00:00.000Z","reclat":49.36667,"reclong":16.63333,"geolocation":{"latitude":49.36667,"longitude":16.63333}}
{"name":"Bloomington","id":5076,"nametype":"Valid","recclass":"LL6","mass":67.8,"fall":"Fell","year":"1938-01-01T00:00:00.000Z","reclat":40.48,"reclong":-89.00417,"geolocation":{"latitude":40.48,"longitude":-89.00417}}
{"name":"Bo Xian","id":5090,"nametype":"Valid","recclass":"LL3.9","mass":7500,"fall":"Fell","year":"1977-01-01T00:00:00.000Z","reclat":33.83333,"reclong":115.83333,"geolocation":{"latitude":33.83333,"longitude":115.83333}}
{"name":"Bocas","id":5093,"nametype":"Valid","recclass":"L6","mass":56,"fall":"Fell","year":"1804-01-01T00:00:00.000Z","reclat":23,"reclong":-102,"geolocation":{"latitude":23,"longitude":-102}}
{"name":"Bogou","id":5097,"nametype":"Valid","recclass":"Iron, IAB-MG","mass":8800,"fall":"Fell","year":"1962-01-01T00:00:00.000Z","reclat":12.5,"reclong":0.7,"geolocation":{"latitude":12.5,"longitude":0.7}}
{"name":"Boguslavka","id":5098,"nametype":"Valid","recclass":"Iron, IIAB","mass":256000,"fall":"Fell","year":"1916-01-01T00:00:00.000Z","reclat":44.55,"reclong":131.63333,"geolocation":{"latitude":44.55,"longitude":131.63333}}
{"name":"Borgo San Donino","id":5110,"nametype":"Valid","recclass":"LL6","mass":1676,"fall":"Fell","year":"1808-01-01T00:00:00.000Z","reclat":44.86667,"reclong":10.05,"geolocation":{"latitude":44.86667,"longitude":10.05}}
{"name":"Bori","id":5111,"nametype":"Valid","recclass":"L6","mass":8600,"fall":"Fell","year":"1894-01-01T00:00:00.000Z","reclat":21.95,"reclong":78.03333,"geolocation":{"latitude":21.95,"longitude":78.03333}}
{"name":"Boriskino","id":5112,"nametype":"Valid","recclass":"CM2","mass":1342,"fall":"Fell","year":"1930-01-01T00:00:00.000Z","reclat":54.23333,"reclong":52.48333,"geolocation":{"latitude":54.23333,"longitude":52.48333}}
{"name":"Borkut","id":5113,"nametype":"Valid","recclass":"L5","mass":7000,"fall":"Fell","year":"1852-01-01T00:00:00.000Z","reclat":48.15,"reclong":24.28333,"geolocation":{"latitude":48.15,"longitude":24.28333}}
{"name":"Borodino","id":5114,"nametype":"Valid","recclass":"H5","mass":500,"fall":"Fell","year":"1812-01-01T00:00:00.000Z","reclat":55.46667,"reclong":35.86667,"geolocation":{"latitude":55.46667,"longitude":35.86667}}
{"name":"Botschetschki","id":5117,"nametype":"Valid","recclass":"L4","mass":614,"fall":"Fell","year":"1823-01-01T00:00:00.000Z","reclat":51.33333,"reclong":33.88333,"geolocation":{"latitude":51.33333,"longitude":33.88333}}
{"name":"Boumdeid (2003)","id":57168,"nametype":"Valid","recclass":"L6","mass":190,"fall":"Fell","year":"2003-01-01T00:00:00.000Z","reclat":17.71067,"reclong":-11.3715,"geolocation":{"latitude":17.71067,"longitude":-11.3715}}
{"name":"Boumdeid (2011)","id":57167,"nametype":"Valid","recclass":"L6","mass":3599,"fall":"Fell","year":"2011-01-01T00:00:00.000Z","reclat":17.17493,"reclong":-11.34133,"geolocation":{"latitude":17.17493,"longitude":-11.34133}}
{"name":"Bovedy","id":5121,"nametype":"Valid","recclass":"L3","mass":5460,"fall":"Fell","year":"1969-01-01T00:00:00.000Z","reclat":54.56667,"reclong":-6.33333,"geolocation":{"latitude":54.56667,"longitude":-6.33333}}
{"name":"Bradford Woods","id":5128,"nametype":"Valid","recclass":"L","mass":762,"fall":"Fell","year":"1886-01-01T00:00:00.000Z","reclat":40.5,"reclong":-80.08333,"geolocation":{"latitude":40.5,"longitude":-80.08333}}
{"name":"Braunau","id":5133,"nametype":"Valid","recclass":"Iron, IIAB","mass":39000,"fall":"Fell","year":"1847-01-01T00:00:00.000Z","reclat":50.6,"reclong":16.3,"geolocation":{"latitude":50.6,"longitude":16.3}}
{"name":"Breitscheid","id":5134,"nametype":"Valid","recclass":"H5","mass":1500,"fall":"Fell","year":"1956-01-01T00:00:00.000Z","reclat":50.66694,"reclong":8.18361,"geolocation":{"latitude":50.66694,"longitude":8.18361}}
{"name":"Bremervörde","id":5135,"nametype":"Valid","recclass":"H/L3.9","mass":7250,"fall":"Fell","year":"1855-01-01T00:00:00.000Z","reclat":53.4,"reclong":9.1,"geolocation":{"latitude":53.4,"longitude":9.1}}
{"name":"Brient","id":5140,"nametype":"Valid","recclass":"Eucrite-pmict","mass":219,"fall":"Fell","year":"1933-01-01T00:00:00.000Z","reclat":52.13333,"reclong":59.31667,"geolocation":{"latitude":52.13333,"longitude":59.31667}}
{"name":"Bruderheim","id":5156,"nametype":"Valid","recclass":"L6","mass":303000,"fall":"Fell","year":"1960-01-01T00:00:00.000Z","reclat":53.9,"reclong":-112.88333,"geolocation":{"latitude":53.9,"longitude":-112.88333}}
{"name":"Bukhara","id":30448,"nametype":"Valid","recclass":"CV3","mass":5300,"fall":"Fell","year":"2001-01-01T00:00:00.000Z","reclat":39.77978,"reclong":64.60035,"geolocation":{"latitude":39.77978,"longitude":64.60035}}
{"name":"Bulls Run","id":5163,"nametype":"Valid","recclass":"Iron?","mass":2250,"fall":"Fell","year":"1964-01-01T00:00:00.000Z"},
{"name":"Bunburra Rockhole","id":48653,"nametype":"Valid","recclass":"Eucrite","mass":324,"fall":"Fell","year":"2007-01-01T00:00:00.000Z","reclat":-31.35,"reclong":129.19,"geolocation":{"latitude":-31.35,"longitude":129.19}}
{"name":"Bununu","id":5165,"nametype":"Valid","recclass":"Howardite","mass":357,"fall":"Fell","year":"1942-01-01T00:00:00.000Z","reclat":10.01667,"reclong":9.58333,"geolocation":{"latitude":10.01667,"longitude":9.58333}}
{"name":"Bur-Gheluai","id":5169,"nametype":"Valid","recclass":"H5","mass":120000,"fall":"Fell","year":"1919-01-01T00:00:00.000Z","reclat":5,"reclong":48,"geolocation":{"latitude":5,"longitude":48}}
{"name":"Burnwell","id":5175,"nametype":"Valid","recclass":"H4-an","mass":1504,"fall":"Fell","year":"1990-01-01T00:00:00.000Z","reclat":37.62194,"reclong":-82.23722,"geolocation":{"latitude":37.62194,"longitude":-82.23722}}
{"name":"Bursa","id":5177,"nametype":"Valid","recclass":"L6","mass":25000,"fall":"Fell","year":"1946-01-01T00:00:00.000Z","reclat":40.2,"reclong":29.23333,"geolocation":{"latitude":40.2,"longitude":29.23333}}
{"name":"Buschhof","id":5178,"nametype":"Valid","recclass":"L6","mass":5000,"fall":"Fell","year":"1863-01-01T00:00:00.000Z","reclat":46.45,"reclong":25.78333,"geolocation":{"latitude":46.45,"longitude":25.78333}}
{"name":"Bustee","id":5181,"nametype":"Valid","recclass":"Aubrite","mass":1500,"fall":"Fell","year":"1852-01-01T00:00:00.000Z","reclat":26.78333,"reclong":82.83333,"geolocation":{"latitude":26.78333,"longitude":82.83333}}
{"name":"Butsura","id":5183,"nametype":"Valid","recclass":"H6","mass":29000,"fall":"Fell","year":"1861-01-01T00:00:00.000Z","reclat":27.08333,"reclong":84.08333,"geolocation":{"latitude":27.08333,"longitude":84.08333}}
{"name":"Buzzard Coulee","id":48654,"nametype":"Valid","recclass":"H4","mass":41000,"fall":"Fell","year":"2008-01-01T00:00:00.000Z","reclat":52.996,"reclong":-109.84817,"geolocation":{"latitude":52.996,"longitude":-109.84817}}
{"name":"Cabezo de Mayo","id":5185,"nametype":"Valid","recclass":"L/LL6","mass":25000,"fall":"Fell","year":"1870-01-01T00:00:00.000Z","reclat":37.98333,"reclong":-1.16667,"geolocation":{"latitude":37.98333,"longitude":-1.16667}}
{"name":"Cabin Creek","id":5186,"nametype":"Valid","recclass":"Iron, IIIAB","mass":48500,"fall":"Fell","year":"1886-01-01T00:00:00.000Z","reclat":35.5,"reclong":-93.5,"geolocation":{"latitude":35.5,"longitude":-93.5}}
{"name":"Cacak","id":5187,"nametype":"Valid","recclass":"OC","mass":212,"fall":"Fell","year":"1919-01-01T00:00:00.000Z","reclat":43.83889,"reclong":20.33333,"geolocation":{"latitude":43.83889,"longitude":20.33333}}
{"name":"Cali","id":45976,"nametype":"Valid","recclass":"H/L4","mass":478,"fall":"Fell","year":"2007-01-01T00:00:00.000Z","reclat":3.405,"reclong":-76.51,"geolocation":{"latitude":3.405,"longitude":-76.51}}
{"name":"Calivo","id":5200,"nametype":"Valid","recclass":"Stone-uncl","mass":2400,"fall":"Fell","year":"1916-01-01T00:00:00.000Z","reclat":11.75,"reclong":122.33333,"geolocation":{"latitude":11.75,"longitude":122.33333}}
{"name":"Campos Sales","id":5249,"nametype":"Valid","recclass":"L5","mass":23680,"fall":"Fell","year":"1991-01-01T00:00:00.000Z","reclat":-7.03333,"reclong":-40.16667,"geolocation":{"latitude":-7.03333,"longitude":-40.16667}}
{"name":"Çanakkale","id":5250,"nametype":"Valid","recclass":"L6","mass":4000,"fall":"Fell","year":"1964-01-01T00:00:00.000Z","reclat":39.8,"reclong":26.6,"geolocation":{"latitude":39.8,"longitude":26.6}}
{"name":"Cañellas","id":5251,"nametype":"Valid","recclass":"H4","mass":945,"fall":"Fell","year":"1861-01-01T00:00:00.000Z","reclat":41.25,"reclong":1.66667,"geolocation":{"latitude":41.25,"longitude":1.66667}}
{"name":"Cangas de Onis","id":5252,"nametype":"Valid","recclass":"H5","mass":34000,"fall":"Fell","year":"1866-01-01T00:00:00.000Z","reclat":43.38333,"reclong":-5.15,"geolocation":{"latitude":43.38333,"longitude":-5.15}}
{"name":"Canon City","id":5253,"nametype":"Valid","recclass":"H6","mass":1400,"fall":"Fell","year":"1973-01-01T00:00:00.000Z","reclat":38.47028,"reclong":-105.24139,"geolocation":{"latitude":38.47028,"longitude":-105.24139}}
{"name":"Cape Girardeau","id":5260,"nametype":"Valid","recclass":"H6","mass":2300,"fall":"Fell","year":"1846-01-01T00:00:00.000Z","reclat":37.26667,"reclong":-89.58333,"geolocation":{"latitude":37.26667,"longitude":-89.58333}}
{"name":"Capilla del Monte","id":5264,"nametype":"Valid","recclass":"H6","mass":750,"fall":"Fell","year":"1934-01-01T00:00:00.000Z","reclat":-30.88333,"reclong":-64.55,"geolocation":{"latitude":-30.88333,"longitude":-64.55}}
{"name":"Carancas","id":45817,"nametype":"Valid","recclass":"H4-5","mass":342,"fall":"Fell","year":"2007-01-01T00:00:00.000Z","reclat":-16.66444,"reclong":-69.04389,"geolocation":{"latitude":-16.66444,"longitude":-69.04389}}
{"name":"Caratash","id":5265,"nametype":"Valid","recclass":"LL6","mass":8,"fall":"Fell","year":"1902-01-01T00:00:00.000Z","reclat":38.5,"reclong":27,"geolocation":{"latitude":38.5,"longitude":27}}
{"name":"Castalia","id":5291,"nametype":"Valid","recclass":"H5","mass":7300,"fall":"Fell","year":"1874-01-01T00:00:00.000Z","reclat":36.08333,"reclong":-78.06667,"geolocation":{"latitude":36.08333,"longitude":-78.06667}}
{"name":"Castel Berardenga","id":5292,"nametype":"Valid","recclass":"Stone-uncl","fall":"Fell","year":"1791-01-01T00:00:00.000Z","reclat":43.35,"reclong":11.5,"geolocation":{"latitude":43.35,"longitude":11.5}}
{"name":"Castine","id":5293,"nametype":"Valid","recclass":"L6","mass":94,"fall":"Fell","year":"1848-01-01T00:00:00.000Z","reclat":44.38333,"reclong":-68.75,"geolocation":{"latitude":44.38333,"longitude":-68.75}}
{"name":"Castrovillari","id":5295,"nametype":"Valid","recclass":"Stone-uncl","mass":15000,"fall":"Fell","year":"1583-01-01T00:00:00.000Z","reclat":39.8,"reclong":16.2,"geolocation":{"latitude":39.8,"longitude":16.2}}
{"name":"Caswell County","id":5296,"nametype":"Valid","recclass":"OC","mass":1360,"fall":"Fell","year":"1810-01-01T00:00:00.000Z","reclat":36.5,"reclong":-79.25,"geolocation":{"latitude":36.5,"longitude":-79.25}}
{"name":"Ceniceros","id":5306,"nametype":"Valid","recclass":"L3.7","mass":1025,"fall":"Fell","year":"1988-01-01T00:00:00.000Z","reclat":26.46667,"reclong":-105.23333,"geolocation":{"latitude":26.46667,"longitude":-105.23333}}
{"name":"Centerville","id":5307,"nametype":"Valid","recclass":"H5","mass":45.6,"fall":"Fell","year":"1956-01-01T00:00:00.000Z","reclat":43.2,"reclong":-96.91667,"geolocation":{"latitude":43.2,"longitude":-96.91667}}
{"name":"Cereseto","id":5308,"nametype":"Valid","recclass":"H5","mass":6460,"fall":"Fell","year":"1840-01-01T00:00:00.000Z","reclat":45.08333,"reclong":8.3,"geolocation":{"latitude":45.08333,"longitude":8.3}}
{"name":"Chadong","id":5313,"nametype":"Valid","recclass":"L6","mass":3700,"fall":"Fell","year":"1998-01-01T00:00:00.000Z","reclat":28.53333,"reclong":109.31667,"geolocation":{"latitude":28.53333,"longitude":109.31667}}
{"name":"Chail","id":5314,"nametype":"Valid","recclass":"H6","mass":0.5,"fall":"Fell","year":"1814-01-01T00:00:00.000Z","reclat":25.36667,"reclong":81.66667,"geolocation":{"latitude":25.36667,"longitude":81.66667}}
{"name":"Chainpur","id":5315,"nametype":"Valid","recclass":"LL3.4","mass":8200,"fall":"Fell","year":"1907-01-01T00:00:00.000Z","reclat":25.85,"reclong":83.48333,"geolocation":{"latitude":25.85,"longitude":83.48333}}
{"name":"Chajari","id":5316,"nametype":"Valid","recclass":"L5","mass":18300,"fall":"Fell","year":"1933-01-01T00:00:00.000Z","reclat":-30.78333,"reclong":-58.05,"geolocation":{"latitude":-30.78333,"longitude":-58.05}}
{"name":"Chandakapur","id":5320,"nametype":"Valid","recclass":"L5","mass":8800,"fall":"Fell","year":"1838-01-01T00:00:00.000Z","reclat":20.26667,"reclong":76.01667,"geolocation":{"latitude":20.26667,"longitude":76.01667}}
{"name":"Chandpur","id":5321,"nametype":"Valid","recclass":"L6","mass":1100,"fall":"Fell","year":"1885-01-01T00:00:00.000Z","reclat":27.28333,"reclong":79.05,"geolocation":{"latitude":27.28333,"longitude":79.05}}
{"name":"Changde","id":5322,"nametype":"Valid","recclass":"H5","mass":1810,"fall":"Fell","year":"1977-01-01T00:00:00.000Z","reclat":29.08333,"reclong":111.75,"geolocation":{"latitude":29.08333,"longitude":111.75}}
{"name":"Chantonnay","id":5325,"nametype":"Valid","recclass":"L6","mass":31500,"fall":"Fell","year":"1812-01-01T00:00:00.000Z","reclat":46.68333,"reclong":1.05,"geolocation":{"latitude":46.68333,"longitude":1.05}}
{"name":"Charlotte","id":5328,"nametype":"Valid","recclass":"Iron, IVA","mass":4300,"fall":"Fell","year":"1835-01-01T00:00:00.000Z","reclat":36.16667,"reclong":-87.33333,"geolocation":{"latitude":36.16667,"longitude":-87.33333}}
{"name":"Charsonville","id":5329,"nametype":"Valid","recclass":"H6","mass":27000,"fall":"Fell","year":"1810-01-01T00:00:00.000Z","reclat":47.93333,"reclong":1.56667,"geolocation":{"latitude":47.93333,"longitude":1.56667}}
{"name":"Charwallas","id":5330,"nametype":"Valid","recclass":"H6","mass":12000,"fall":"Fell","year":"1834-01-01T00:00:00.000Z","reclat":29.48333,"reclong":75.5,"geolocation":{"latitude":29.48333,"longitude":75.5}}
{"name":"Chassigny","id":5331,"nametype":"Valid","recclass":"Martian (chassignite)","mass":4000,"fall":"Fell","year":"1815-01-01T00:00:00.000Z","reclat":47.71667,"reclong":5.36667,"geolocation":{"latitude":47.71667,"longitude":5.36667}}
{"name":"Château-Renard","id":5332,"nametype":"Valid","recclass":"L6","mass":30000,"fall":"Fell","year":"1841-01-01T00:00:00.000Z","reclat":47.93333,"reclong":2.91667,"geolocation":{"latitude":47.93333,"longitude":2.91667}}
{"name":"Chaves","id":5334,"nametype":"Valid","recclass":"Howardite","mass":2945,"fall":"Fell","year":"1925-01-01T00:00:00.000Z","reclat":41.93333,"reclong":-7.46667,"geolocation":{"latitude":41.93333,"longitude":-7.46667}}
{"name":"Chela","id":5338,"nametype":"Valid","recclass":"H4","mass":2936,"fall":"Fell","year":"1988-01-01T00:00:00.000Z","reclat":-3.66667,"reclong":32.5,"geolocation":{"latitude":-3.66667,"longitude":32.5}}
{"name":"Chelyabinsk","id":57165,"nametype":"Valid","recclass":"LL5","mass":100000,"fall":"Fell","year":"2013-01-01T00:00:00.000Z","reclat":54.81667,"reclong":61.11667,"geolocation":{"latitude":54.81667,"longitude":61.11667}}
{"name":"Chergach ","id":47347,"nametype":"Valid","recclass":"H5","mass":100000,"fall":"Fell","year":"2007-01-01T00:00:00.000Z","reclat":23.69639,"reclong":-5.01472,"geolocation":{"latitude":23.69639,"longitude":-5.01472}}
{"name":"Chernyi Bor","id":5339,"nametype":"Valid","recclass":"H4","mass":6000,"fall":"Fell","year":"1964-01-01T00:00:00.000Z","reclat":53.7,"reclong":30.1,"geolocation":{"latitude":53.7,"longitude":30.1}}
{"name":"Cherokee Springs","id":5340,"nametype":"Valid","recclass":"LL6","mass":8400,"fall":"Fell","year":"1933-01-01T00:00:00.000Z","reclat":35.03333,"reclong":-81.88333,"geolocation":{"latitude":35.03333,"longitude":-81.88333}}
{"name":"Chervettaz","id":5341,"nametype":"Valid","recclass":"L5","mass":705,"fall":"Fell","year":"1901-01-01T00:00:00.000Z","reclat":46.55,"reclong":6.81667,"geolocation":{"latitude":46.55,"longitude":6.81667}}
{"name":"Chervony Kut","id":5342,"nametype":"Valid","recclass":"Eucrite-mmict","mass":1700,"fall":"Fell","year":"1939-01-01T00:00:00.000Z","reclat":50.83333,"reclong":34,"geolocation":{"latitude":50.83333,"longitude":34}}
{"name":"Chetrinahatti","id":5344,"nametype":"Valid","recclass":"Stone-uncl","mass":72,"fall":"Fell","year":"1880-01-01T00:00:00.000Z","reclat":14.5,"reclong":76.5,"geolocation":{"latitude":14.5,"longitude":76.5}}
{"name":"Chiang Khan","id":5345,"nametype":"Valid","recclass":"H6","mass":367,"fall":"Fell","year":"1981-01-01T00:00:00.000Z","reclat":17.9,"reclong":101.63333,"geolocation":{"latitude":17.9,"longitude":101.63333}}
{"name":"Chicora","id":5349,"nametype":"Valid","recclass":"LL6","mass":303,"fall":"Fell","year":"1938-01-01T00:00:00.000Z","reclat":40.93333,"reclong":-79.73333,"geolocation":{"latitude":40.93333,"longitude":-79.73333}}
{"name":"Chisenga","id":5355,"nametype":"Valid","recclass":"Iron, IIIAB","mass":3920,"fall":"Fell","year":"1988-01-01T00:00:00.000Z","reclat":-10.05944,"reclong":33.395,"geolocation":{"latitude":-10.05944,"longitude":33.395}}
{"name":"Chitado","id":5356,"nametype":"Valid","recclass":"L6","fall":"Fell","year":"1966-01-01T00:00:00.000Z","reclat":-17.35,"reclong":13.96667,"geolocation":{"latitude":-17.35,"longitude":13.96667}}
{"name":"Chitenay","id":5357,"nametype":"Valid","recclass":"L6","mass":4000,"fall":"Fell","year":"1978-01-01T00:00:00.000Z","reclat":47.47083,"reclong":0.97667,"geolocation":{"latitude":47.47083,"longitude":0.97667}}
{"name":"Cilimus","id":5364,"nametype":"Valid","recclass":"L5","mass":1600,"fall":"Fell","year":"1979-01-01T00:00:00.000Z","reclat":-6.95,"reclong":108.1,"geolocation":{"latitude":-6.95,"longitude":108.1}}
{"name":"Claxton","id":5374,"nametype":"Valid","recclass":"L6","mass":1455,"fall":"Fell","year":"1984-01-01T00:00:00.000Z","reclat":32.1025,"reclong":-81.87278,"geolocation":{"latitude":32.1025,"longitude":-81.87278}}
{"name":"Clohars","id":5383,"nametype":"Valid","recclass":"L4","mass":48.6,"fall":"Fell","year":"1822-01-01T00:00:00.000Z"},
{"name":"Colby (Wisconsin)","id":5395,"nametype":"Valid","recclass":"L6","mass":104000,"fall":"Fell","year":"1917-01-01T00:00:00.000Z","reclat":44.9,"reclong":-90.28333,"geolocation":{"latitude":44.9,"longitude":-90.28333}}
{"name":"Cold Bokkeveld","id":5397,"nametype":"Valid","recclass":"CM2","mass":5200,"fall":"Fell","year":"1838-01-01T00:00:00.000Z","reclat":-33.13333,"reclong":19.38333,"geolocation":{"latitude":-33.13333,"longitude":19.38333}}
{"name":"Coleman","id":5401,"nametype":"Valid","recclass":"L6","mass":469,"fall":"Fell","year":"1994-01-01T00:00:00.000Z","reclat":43.76111,"reclong":-84.50778,"geolocation":{"latitude":43.76111,"longitude":-84.50778}}
{"name":"Collescipoli","id":5403,"nametype":"Valid","recclass":"H5","mass":5000,"fall":"Fell","year":"1890-01-01T00:00:00.000Z","reclat":42.53333,"reclong":12.61667,"geolocation":{"latitude":42.53333,"longitude":12.61667}}
{"name":"Conquista","id":5418,"nametype":"Valid","recclass":"H4","mass":20350,"fall":"Fell","year":"1965-01-01T00:00:00.000Z","reclat":-19.85,"reclong":-47.55,"geolocation":{"latitude":-19.85,"longitude":-47.55}}
{"name":"Cosina","id":5451,"nametype":"Valid","recclass":"H5","mass":1200,"fall":"Fell","year":"1844-01-01T00:00:00.000Z","reclat":21.16667,"reclong":-100.86667,"geolocation":{"latitude":21.16667,"longitude":-100.86667}}
{"name":"Cranganore","id":5465,"nametype":"Valid","recclass":"L6","mass":1460,"fall":"Fell","year":"1917-01-01T00:00:00.000Z","reclat":10.2,"reclong":76.26667,"geolocation":{"latitude":10.2,"longitude":76.26667}}
{"name":"Crescent","id":5470,"nametype":"Valid","recclass":"CM2","mass":78.4,"fall":"Fell","year":"1936-01-01T00:00:00.000Z","reclat":35.95,"reclong":-97.58333,"geolocation":{"latitude":35.95,"longitude":-97.58333}}
{"name":"Cronstad","id":5474,"nametype":"Valid","recclass":"H5","mass":3650,"fall":"Fell","year":"1877-01-01T00:00:00.000Z","reclat":-27.7,"reclong":27.3,"geolocation":{"latitude":-27.7,"longitude":27.3}}
{"name":"Cross Roads","id":5476,"nametype":"Valid","recclass":"H5","mass":167,"fall":"Fell","year":"1892-01-01T00:00:00.000Z","reclat":35.63333,"reclong":-78.13333,"geolocation":{"latitude":35.63333,"longitude":-78.13333}}
{"name":"Crumlin","id":5477,"nametype":"Valid","recclass":"L5","mass":4255,"fall":"Fell","year":"1902-01-01T00:00:00.000Z","reclat":54.61667,"reclong":-6.21667,"geolocation":{"latitude":54.61667,"longitude":-6.21667}}
{"name":"Cumberland Falls","id":5496,"nametype":"Valid","recclass":"Aubrite","mass":17000,"fall":"Fell","year":"1919-01-01T00:00:00.000Z","reclat":36.83333,"reclong":-84.35,"geolocation":{"latitude":36.83333,"longitude":-84.35}}
{"name":"Cynthiana","id":5500,"nametype":"Valid","recclass":"L/LL4","mass":6000,"fall":"Fell","year":"1877-01-01T00:00:00.000Z","reclat":38.4,"reclong":-84.25,"geolocation":{"latitude":38.4,"longitude":-84.25}}
{"name":"Dahmani","id":5504,"nametype":"Valid","recclass":"LL6","mass":18000,"fall":"Fell","year":"1981-01-01T00:00:00.000Z","reclat":35.61667,"reclong":8.83333,"geolocation":{"latitude":35.61667,"longitude":8.83333}}
{"name":"Dandapur","id":5511,"nametype":"Valid","recclass":"L6","mass":5650,"fall":"Fell","year":"1878-01-01T00:00:00.000Z","reclat":26.91667,"reclong":83.96667,"geolocation":{"latitude":26.91667,"longitude":83.96667}}
{"name":"Daniel's Kuil","id":5513,"nametype":"Valid","recclass":"EL6","mass":1064,"fall":"Fell","year":"1868-01-01T00:00:00.000Z","reclat":-28.2,"reclong":24.56667,"geolocation":{"latitude":-28.2,"longitude":24.56667}}
{"name":"Danville","id":5514,"nametype":"Valid","recclass":"L6","mass":2000,"fall":"Fell","year":"1868-01-01T00:00:00.000Z","reclat":34.4,"reclong":-87.06667,"geolocation":{"latitude":34.4,"longitude":-87.06667}}
{"name":"Darmstadt","id":6603,"nametype":"Valid","recclass":"H5","mass":100,"fall":"Fell","year":"1804-01-01T00:00:00.000Z","reclat":49.86667,"reclong":8.65,"geolocation":{"latitude":49.86667,"longitude":8.65}}
{"name":"Dashoguz","id":6604,"nametype":"Valid","recclass":"H5","mass":7000,"fall":"Fell","year":"1998-01-01T00:00:00.000Z","reclat":41.98444,"reclong":59.685,"geolocation":{"latitude":41.98444,"longitude":59.685}}
{"name":"Daule","id":51559,"nametype":"Valid","recclass":"L5","mass":6580,"fall":"Fell","year":"2008-01-01T00:00:00.000Z","reclat":-1.87089,"reclong":-79.95756,"geolocation":{"latitude":-1.87089,"longitude":-79.95756}}
{"name":"De Cewsville","id":6621,"nametype":"Valid","recclass":"H6","mass":340,"fall":"Fell","year":"1887-01-01T00:00:00.000Z","reclat":43,"reclong":-80,"geolocation":{"latitude":43,"longitude":-80}}
{"name":"Deal","id":6634,"nametype":"Valid","recclass":"L6","mass":28,"fall":"Fell","year":"1829-01-01T00:00:00.000Z","reclat":40.25,"reclong":-74,"geolocation":{"latitude":40.25,"longitude":-74}}
{"name":"Delhi","id":6642,"nametype":"Valid","recclass":"L5","mass":0.8,"fall":"Fell","year":"1897-01-01T00:00:00.000Z","reclat":28.56667,"reclong":77.25,"geolocation":{"latitude":28.56667,"longitude":77.25}}
{"name":"Demina","id":6649,"nametype":"Valid","recclass":"L6","mass":16400,"fall":"Fell","year":"1911-01-01T00:00:00.000Z","reclat":51.46667,"reclong":84.76667,"geolocation":{"latitude":51.46667,"longitude":84.76667}}
{"name":"Denver","id":6660,"nametype":"Valid","recclass":"L6","mass":230,"fall":"Fell","year":"1967-01-01T00:00:00.000Z","reclat":39.7825,"reclong":-104.93056,"geolocation":{"latitude":39.7825,"longitude":-104.93056}}
{"name":"Dergaon","id":6664,"nametype":"Valid","recclass":"H5","mass":12500,"fall":"Fell","year":"2001-01-01T00:00:00.000Z","reclat":26.68333,"reclong":93.86667,"geolocation":{"latitude":26.68333,"longitude":93.86667}}
{"name":"Desuri","id":6693,"nametype":"Valid","recclass":"H6","mass":25400,"fall":"Fell","year":"1962-01-01T00:00:00.000Z","reclat":25.73333,"reclong":73.61667,"geolocation":{"latitude":25.73333,"longitude":73.61667}}
{"name":"Devgaon","id":6694,"nametype":"Valid","recclass":"H3.8","mass":12000,"fall":"Fell","year":"2001-01-01T00:00:00.000Z","reclat":19,"reclong":81,"geolocation":{"latitude":19,"longitude":81}}
{"name":"Devri-Khera","id":6696,"nametype":"Valid","recclass":"L6","mass":1140,"fall":"Fell","year":"1994-01-01T00:00:00.000Z","reclat":24.225,"reclong":76.525,"geolocation":{"latitude":24.225,"longitude":76.525}}
{"name":"Dhajala","id":6698,"nametype":"Valid","recclass":"H3.8","mass":45000,"fall":"Fell","year":"1976-01-01T00:00:00.000Z","reclat":22.37778,"reclong":71.42722,"geolocation":{"latitude":22.37778,"longitude":71.42722}}
{"name":"Dharwar","id":6699,"nametype":"Valid","recclass":"OC","mass":1800,"fall":"Fell","year":"1848-01-01T00:00:00.000Z","reclat":14.88333,"reclong":75.6,"geolocation":{"latitude":14.88333,"longitude":75.6}}
{"name":"Dhurmsala","id":7640,"nametype":"Valid","recclass":"LL6","mass":32000,"fall":"Fell","year":"1860-01-01T00:00:00.000Z","reclat":32.23333,"reclong":76.46667,"geolocation":{"latitude":32.23333,"longitude":76.46667}}
{"name":"Didim","id":47350,"nametype":"Valid","recclass":"H3-5","mass":3396,"fall":"Fell","year":"2007-01-01T00:00:00.000Z","reclat":37.35172,"reclong":27.32997,"geolocation":{"latitude":37.35172,"longitude":27.32997}}
{"name":"Diep River","id":7642,"nametype":"Valid","recclass":"L6","mass":1000,"fall":"Fell","year":"1906-01-01T00:00:00.000Z","reclat":-33.75,"reclong":18.56667,"geolocation":{"latitude":-33.75,"longitude":18.56667}}
{"name":"Distrito Quebracho","id":7649,"nametype":"Valid","recclass":"H4","mass":400,"fall":"Fell","year":"1957-01-01T00:00:00.000Z","reclat":-31.88333,"reclong":-60.46667,"geolocation":{"latitude":-31.88333,"longitude":-60.46667}}
{"name":"Djati-Pengilon","id":7652,"nametype":"Valid","recclass":"H6","mass":166000,"fall":"Fell","year":"1884-01-01T00:00:00.000Z","reclat":-7.5,"reclong":111.5,"geolocation":{"latitude":-7.5,"longitude":111.5}}
{"name":"Djermaia","id":7656,"nametype":"Valid","recclass":"H","mass":3950,"fall":"Fell","year":"1961-01-01T00:00:00.000Z","reclat":12.73333,"reclong":15.05,"geolocation":{"latitude":12.73333,"longitude":15.05}}
{"name":"Djoumine","id":7657,"nametype":"Valid","recclass":"H5-6","mass":10000,"fall":"Fell","year":"1999-01-01T00:00:00.000Z","reclat":36.95,"reclong":9.55,"geolocation":{"latitude":36.95,"longitude":9.55}}
{"name":"Dokachi","id":7658,"nametype":"Valid","recclass":"H5","mass":3840,"fall":"Fell","year":"1903-01-01T00:00:00.000Z","reclat":23.5,"reclong":90.33333,"geolocation":{"latitude":23.5,"longitude":90.33333}}
{"name":"Dolgovoli","id":7659,"nametype":"Valid","recclass":"L6","mass":1600,"fall":"Fell","year":"1864-01-01T00:00:00.000Z","reclat":50.75,"reclong":25.3,"geolocation":{"latitude":50.75,"longitude":25.3}}
{"name":"Domanitch","id":7661,"nametype":"Valid","recclass":"L5","mass":438,"fall":"Fell","year":"1907-01-01T00:00:00.000Z","reclat":40,"reclong":29,"geolocation":{"latitude":40,"longitude":29}}
{"name":"Dong Ujimqin Qi","id":7706,"nametype":"Valid","recclass":"Mesosiderite","mass":128800,"fall":"Fell","year":"1995-01-01T00:00:00.000Z","reclat":45.5,"reclong":119.03333,"geolocation":{"latitude":45.5,"longitude":119.03333}}
{"name":"Donga Kohrod","id":7707,"nametype":"Valid","recclass":"H6","mass":230,"fall":"Fell","year":"1899-01-01T00:00:00.000Z","reclat":21.86667,"reclong":82.45,"geolocation":{"latitude":21.86667,"longitude":82.45}}
{"name":"Dongtai","id":7708,"nametype":"Valid","recclass":"LL6","mass":5500,"fall":"Fell","year":"1970-01-01T00:00:00.000Z","reclat":32.91667,"reclong":120.78333,"geolocation":{"latitude":32.91667,"longitude":120.78333}}
{"name":"Doroninsk","id":7718,"nametype":"Valid","recclass":"H5-7","mass":3891,"fall":"Fell","year":"1805-01-01T00:00:00.000Z","reclat":51.2,"reclong":112.3,"geolocation":{"latitude":51.2,"longitude":112.3}}
{"name":"Dosso","id":7722,"nametype":"Valid","recclass":"L6","mass":1250,"fall":"Fell","year":"1962-01-01T00:00:00.000Z","reclat":13.05,"reclong":3.16667,"geolocation":{"latitude":13.05,"longitude":3.16667}}
{"name":"Douar Mghila","id":7723,"nametype":"Valid","recclass":"LL6","mass":1161,"fall":"Fell","year":"1932-01-01T00:00:00.000Z","reclat":32.33333,"reclong":-6.3,"geolocation":{"latitude":32.33333,"longitude":-6.3}}
{"name":"Dowa","id":7725,"nametype":"Valid","recclass":"Stone-uncl","mass":642,"fall":"Fell","year":"1976-01-01T00:00:00.000Z","reclat":-13.66667,"reclong":33.91667,"geolocation":{"latitude":-13.66667,"longitude":33.91667}}
{"name":"Drake Creek","id":7728,"nametype":"Valid","recclass":"L6","mass":5000,"fall":"Fell","year":"1827-01-01T00:00:00.000Z","reclat":36.4,"reclong":-86.5,"geolocation":{"latitude":36.4,"longitude":-86.5}}
{"name":"Dresden (Ontario)","id":7731,"nametype":"Valid","recclass":"H6","mass":47700,"fall":"Fell","year":"1939-01-01T00:00:00.000Z","reclat":42.52,"reclong":-82.26,"geolocation":{"latitude":42.52,"longitude":-82.26}}
{"name":"Dubrovnik","id":7736,"nametype":"Valid","recclass":"L3-6","mass":1900,"fall":"Fell","year":"1951-01-01T00:00:00.000Z","reclat":42.45833,"reclong":18.44167,"geolocation":{"latitude":42.45833,"longitude":18.44167}}
{"name":"Dunbogan","id":7743,"nametype":"Valid","recclass":"L6","mass":30,"fall":"Fell","year":"1999-01-01T00:00:00.000Z","reclat":-31.66667,"reclong":152.83333,"geolocation":{"latitude":-31.66667,"longitude":152.83333}}
{"name":"Dundrum","id":7745,"nametype":"Valid","recclass":"H5","mass":2270,"fall":"Fell","year":"1865-01-01T00:00:00.000Z","reclat":52.55,"reclong":-8.03333,"geolocation":{"latitude":52.55,"longitude":-8.03333}}
{"name":"Dunhua","id":7749,"nametype":"Valid","recclass":"Stone-uncl","fall":"Fell","year":"1976-01-01T00:00:00.000Z","reclat":43.33333,"reclong":128.25,"geolocation":{"latitude":43.33333,"longitude":128.25}}
{"name":"Durala","id":7750,"nametype":"Valid","recclass":"L6","mass":13200,"fall":"Fell","year":"1815-01-01T00:00:00.000Z","reclat":30.3,"reclong":76.63333,"geolocation":{"latitude":30.3,"longitude":76.63333}}
{"name":"Duruma","id":7752,"nametype":"Valid","recclass":"L6","mass":577,"fall":"Fell","year":"1853-01-01T00:00:00.000Z","reclat":-4,"reclong":39.5,"geolocation":{"latitude":-4,"longitude":39.5}}
{"name":"Duwun","id":7754,"nametype":"Valid","recclass":"L6","mass":2117,"fall":"Fell","year":"1943-01-01T00:00:00.000Z","reclat":33.43333,"reclong":127.26667,"geolocation":{"latitude":33.43333,"longitude":127.26667}}
{"name":"Dwaleni","id":7755,"nametype":"Valid","recclass":"H4-6","mass":3230,"fall":"Fell","year":"1970-01-01T00:00:00.000Z","reclat":-27.2,"reclong":31.31667,"geolocation":{"latitude":-27.2,"longitude":31.31667}}
{"name":"Dyalpur","id":7757,"nametype":"Valid","recclass":"Ureilite","mass":300,"fall":"Fell","year":"1872-01-01T00:00:00.000Z","reclat":26.25,"reclong":82,"geolocation":{"latitude":26.25,"longitude":82}}
{"name":"Dyarrl Island","id":7758,"nametype":"Valid","recclass":"Mesosiderite-A1","mass":188,"fall":"Fell","year":"1933-01-01T00:00:00.000Z","reclat":-3,"reclong":151,"geolocation":{"latitude":-3,"longitude":151}}
{"name":"Eagle","id":7760,"nametype":"Valid","recclass":"EL6","mass":10000,"fall":"Fell","year":"1947-01-01T00:00:00.000Z","reclat":40.78167,"reclong":-96.47167,"geolocation":{"latitude":40.78167,"longitude":-96.47167}}
{"name":"Ehole","id":7774,"nametype":"Valid","recclass":"H5","mass":2400,"fall":"Fell","year":"1961-01-01T00:00:00.000Z","reclat":-17.3,"reclong":15.83333,"geolocation":{"latitude":-17.3,"longitude":15.83333}}
{"name":"Eichstädt","id":7775,"nametype":"Valid","recclass":"H5","mass":3000,"fall":"Fell","year":"1785-01-01T00:00:00.000Z","reclat":48.9,"reclong":11.21667,"geolocation":{"latitude":48.9,"longitude":11.21667}}
{"name":"Ekeby","id":7776,"nametype":"Valid","recclass":"H4","mass":3336,"fall":"Fell","year":"1939-01-01T00:00:00.000Z","reclat":56.03333,"reclong":13,"geolocation":{"latitude":56.03333,"longitude":13}}
{"name":"Ekh Khera","id":7777,"nametype":"Valid","recclass":"H6","mass":840,"fall":"Fell","year":"1916-01-01T00:00:00.000Z","reclat":28.26667,"reclong":78.78333,"geolocation":{"latitude":28.26667,"longitude":78.78333}}
{"name":"El Idrissia","id":7807,"nametype":"Valid","recclass":"L6","mass":10000,"fall":"Fell","year":"1989-01-01T00:00:00.000Z","reclat":34.41667,"reclong":3.25,"geolocation":{"latitude":34.41667,"longitude":3.25}}
{"name":"El Paso de Aguila","id":45977,"nametype":"Valid","recclass":"H5","mass":17226,"fall":"Fell","year":"1977-01-01T00:00:00.000Z","reclat":25.37,"reclong":-97.37,"geolocation":{"latitude":25.37,"longitude":-97.37}}
{"name":"El Tigre","id":7819,"nametype":"Valid","recclass":"L6","mass":5000,"fall":"Fell","year":"1993-01-01T00:00:00.000Z","reclat":19.96722,"reclong":-103.05167,"geolocation":{"latitude":19.96722,"longitude":-103.05167}}
{"name":"Elbert","id":7822,"nametype":"Valid","recclass":"LL6","mass":680.5,"fall":"Fell","year":"1998-01-01T00:00:00.000Z","reclat":39.24667,"reclong":-104.58817,"geolocation":{"latitude":39.24667,"longitude":-104.58817}}
{"name":"Elbogen","id":7823,"nametype":"Valid","recclass":"Iron, IID","mass":107000,"fall":"Fell","year":"1400-01-01T00:00:00.000Z","reclat":50.18333,"reclong":12.73333,"geolocation":{"latitude":50.18333,"longitude":12.73333}}
{"name":"Elenovka","id":7824,"nametype":"Valid","recclass":"L5","mass":54640,"fall":"Fell","year":"1951-01-01T00:00:00.000Z","reclat":47.83333,"reclong":37.66667,"geolocation":{"latitude":47.83333,"longitude":37.66667}}
{"name":"Ellemeet","id":10019,"nametype":"Valid","recclass":"Diogenite","mass":1470,"fall":"Fell","year":"1925-01-01T00:00:00.000Z","reclat":51.75,"reclong":4,"geolocation":{"latitude":51.75,"longitude":4}}
{"name":"Emmaville","id":10033,"nametype":"Valid","recclass":"Eucrite-mmict","mass":127,"fall":"Fell","year":"1900-01-01T00:00:00.000Z","reclat":-29.46667,"reclong":151.61667,"geolocation":{"latitude":-29.46667,"longitude":151.61667}}
{"name":"Enshi","id":10038,"nametype":"Valid","recclass":"H5","mass":8000,"fall":"Fell","year":"1974-01-01T00:00:00.000Z","reclat":30.3,"reclong":109.5,"geolocation":{"latitude":30.3,"longitude":109.5}}
{"name":"Ensisheim","id":10039,"nametype":"Valid","recclass":"LL6","mass":127000,"fall":"Fell","year":"1492-01-01T00:00:00.000Z","reclat":47.86667,"reclong":7.35,"geolocation":{"latitude":47.86667,"longitude":7.35}}
{"name":"Épinal","id":10041,"nametype":"Valid","recclass":"H5","mass":277,"fall":"Fell","year":"1822-01-01T00:00:00.000Z","reclat":48.18333,"reclong":6.46667,"geolocation":{"latitude":48.18333,"longitude":6.46667}}
{"name":"Erakot","id":10042,"nametype":"Valid","recclass":"CM2","mass":113,"fall":"Fell","year":"1940-01-01T00:00:00.000Z","reclat":19.03333,"reclong":81.89167,"geolocation":{"latitude":19.03333,"longitude":81.89167}}
{"name":"Erevan","id":10043,"nametype":"Valid","recclass":"Howardite","mass":107.2,"fall":"Fell","year":"1911-01-01T00:00:00.000Z","reclat":40.3,"reclong":44.5,"geolocation":{"latitude":40.3,"longitude":44.5}}
{"name":"Ergheo","id":10044,"nametype":"Valid","recclass":"L5","mass":20000,"fall":"Fell","year":"1889-01-01T00:00:00.000Z","reclat":1.16667,"reclong":44.16667,"geolocation":{"latitude":1.16667,"longitude":44.16667}}
{"name":"Erxleben","id":10049,"nametype":"Valid","recclass":"H6","mass":2250,"fall":"Fell","year":"1812-01-01T00:00:00.000Z","reclat":52.21667,"reclong":11.25,"geolocation":{"latitude":52.21667,"longitude":11.25}}
{"name":"Esnandes","id":10051,"nametype":"Valid","recclass":"L6","mass":1500,"fall":"Fell","year":"1837-01-01T00:00:00.000Z","reclat":46.25,"reclong":-1.1,"geolocation":{"latitude":46.25,"longitude":-1.1}}
{"name":"Essebi","id":10055,"nametype":"Valid","recclass":"C2-ung","mass":500,"fall":"Fell","year":"1957-01-01T00:00:00.000Z","reclat":2.88333,"reclong":30.83333,"geolocation":{"latitude":2.88333,"longitude":30.83333}}
{"name":"Estherville","id":10059,"nametype":"Valid","recclass":"Mesosiderite-A3/4","mass":320000,"fall":"Fell","year":"1879-01-01T00:00:00.000Z","reclat":43.41667,"reclong":-94.83333,"geolocation":{"latitude":43.41667,"longitude":-94.83333}}
{"name":"Farmington","id":10074,"nametype":"Valid","recclass":"L5","mass":89400,"fall":"Fell","year":"1890-01-01T00:00:00.000Z","reclat":39.75,"reclong":-97.03333,"geolocation":{"latitude":39.75,"longitude":-97.03333}}
{"name":"Farmville","id":10075,"nametype":"Valid","recclass":"H4","mass":56000,"fall":"Fell","year":"1934-01-01T00:00:00.000Z","reclat":35.55,"reclong":-77.53333,"geolocation":{"latitude":35.55,"longitude":-77.53333}}
{"name":"Favars","id":10078,"nametype":"Valid","recclass":"H5","mass":1500,"fall":"Fell","year":"1844-01-01T00:00:00.000Z","reclat":44.38333,"reclong":2.81667,"geolocation":{"latitude":44.38333,"longitude":2.81667}}
{"name":"Fayetteville","id":10079,"nametype":"Valid","recclass":"H4","mass":2360,"fall":"Fell","year":"1934-01-01T00:00:00.000Z","reclat":36.05,"reclong":-94.16667,"geolocation":{"latitude":36.05,"longitude":-94.16667}}
{"name":"Feid Chair","id":10080,"nametype":"Valid","recclass":"H4","mass":380,"fall":"Fell","year":"1875-01-01T00:00:00.000Z","reclat":36.88333,"reclong":8.45,"geolocation":{"latitude":36.88333,"longitude":8.45}}
{"name":"Felix","id":10081,"nametype":"Valid","recclass":"CO3.3","mass":3200,"fall":"Fell","year":"1900-01-01T00:00:00.000Z","reclat":32.53333,"reclong":-87.16667,"geolocation":{"latitude":32.53333,"longitude":-87.16667}}
{"name":"Fenghsien-Ku","id":10086,"nametype":"Valid","recclass":"H5","mass":82,"fall":"Fell","year":"1924-01-01T00:00:00.000Z","reclat":34.6,"reclong":116.75,"geolocation":{"latitude":34.6,"longitude":116.75}}
{"name":"Ferguson","id":10088,"nametype":"Valid","recclass":"OC","mass":220,"fall":"Fell","year":"1889-01-01T00:00:00.000Z","reclat":36.1,"reclong":-81.41667,"geolocation":{"latitude":36.1,"longitude":-81.41667}}
{"name":"Fermo","id":10091,"nametype":"Valid","recclass":"H3-5","mass":10200,"fall":"Fell","year":"1996-01-01T00:00:00.000Z","reclat":43.18111,"reclong":13.75333,"geolocation":{"latitude":43.18111,"longitude":13.75333}}
{"name":"Fisher","id":10107,"nametype":"Valid","recclass":"L6","mass":17600,"fall":"Fell","year":"1894-01-01T00:00:00.000Z","reclat":47.81667,"reclong":-96.85,"geolocation":{"latitude":47.81667,"longitude":-96.85}}
{"name":"Florence","id":10111,"nametype":"Valid","recclass":"H3","mass":3640,"fall":"Fell","year":"1922-01-01T00:00:00.000Z","reclat":30.83333,"reclong":-97.76667,"geolocation":{"latitude":30.83333,"longitude":-97.76667}}
{"name":"Forest City","id":10119,"nametype":"Valid","recclass":"H5","mass":152000,"fall":"Fell","year":"1890-01-01T00:00:00.000Z","reclat":43.25,"reclong":-93.66667,"geolocation":{"latitude":43.25,"longitude":-93.66667}}
{"name":"Forest Vale","id":10120,"nametype":"Valid","recclass":"H4","mass":26000,"fall":"Fell","year":"1942-01-01T00:00:00.000Z","reclat":-33.35,"reclong":146.85834,"geolocation":{"latitude":-33.35,"longitude":146.85834}}
{"name":"Forksville","id":10123,"nametype":"Valid","recclass":"L6","mass":6067,"fall":"Fell","year":"1924-01-01T00:00:00.000Z","reclat":36.78333,"reclong":-78.08333,"geolocation":{"latitude":36.78333,"longitude":-78.08333}}
{"name":"Forsbach","id":10163,"nametype":"Valid","recclass":"H6","mass":240,"fall":"Fell","year":"1900-01-01T00:00:00.000Z","reclat":50.95,"reclong":7.31667,"geolocation":{"latitude":50.95,"longitude":7.31667}}
{"name":"Forsyth","id":10164,"nametype":"Valid","recclass":"L6","mass":16300,"fall":"Fell","year":"1829-01-01T00:00:00.000Z","reclat":33.01667,"reclong":-83.96667,"geolocation":{"latitude":33.01667,"longitude":-83.96667}}
{"name":"Fort Flatters","id":10166,"nametype":"Valid","recclass":"Stone-uncl","fall":"Fell","year":"1944-01-01T00:00:00.000Z","reclat":28.25,"reclong":7,"geolocation":{"latitude":28.25,"longitude":7}}
{"name":"Frankfort (stone)","id":10177,"nametype":"Valid","recclass":"Howardite","mass":650,"fall":"Fell","year":"1868-01-01T00:00:00.000Z","reclat":34.48333,"reclong":-87.83333,"geolocation":{"latitude":34.48333,"longitude":-87.83333}}
{"name":"Fuhe","id":52412,"nametype":"Valid","recclass":"L5","mass":23000,"fall":"Fell","year":"1945-01-01T00:00:00.000Z","reclat":31.47556,"reclong":113.56694,"geolocation":{"latitude":31.47556,"longitude":113.56694}}
{"name":"Fukutomi","id":10836,"nametype":"Valid","recclass":"L5","mass":11620,"fall":"Fell","year":"1882-01-01T00:00:00.000Z","reclat":33.18333,"reclong":130.2,"geolocation":{"latitude":33.18333,"longitude":130.2}}
{"name":"Fünen","id":10838,"nametype":"Valid","recclass":"Stone-uncl","fall":"Fell","year":"1654-01-01T00:00:00.000Z","reclat":55.33333,"reclong":10.33333,"geolocation":{"latitude":55.33333,"longitude":10.33333}}
{"name":"Futtehpur","id":10839,"nametype":"Valid","recclass":"L6","mass":4000,"fall":"Fell","year":"1822-01-01T00:00:00.000Z","reclat":25.95,"reclong":80.81667,"geolocation":{"latitude":25.95,"longitude":80.81667}}
{"name":"Fuyang","id":10840,"nametype":"Valid","recclass":"Stone-uncl","mass":2500,"fall":"Fell","year":"1977-01-01T00:00:00.000Z","reclat":32.9,"reclong":115.9,"geolocation":{"latitude":32.9,"longitude":115.9}}
{"name":"Galapian","id":10846,"nametype":"Valid","recclass":"H6","mass":132.7,"fall":"Fell","year":"1826-01-01T00:00:00.000Z","reclat":44.3,"reclong":0.4,"geolocation":{"latitude":44.3,"longitude":0.4}}
{"name":"Galim (a)","id":10848,"nametype":"Valid","recclass":"LL6","mass":36.1,"fall":"Fell","year":"1952-01-01T00:00:00.000Z","reclat":7.05,"reclong":12.43333,"geolocation":{"latitude":7.05,"longitude":12.43333}}
{"name":"Galim (b)","id":10849,"nametype":"Valid","recclass":"EH3/4-an","mass":28,"fall":"Fell","year":"1952-01-01T00:00:00.000Z","reclat":7.05,"reclong":12.43333,"geolocation":{"latitude":7.05,"longitude":12.43333}}
{"name":"Galkiv","id":10850,"nametype":"Valid","recclass":"H4","mass":5000,"fall":"Fell","year":"1995-01-01T00:00:00.000Z","reclat":51.68333,"reclong":30.78333,"geolocation":{"latitude":51.68333,"longitude":30.78333}}
{"name":"Gambat","id":10851,"nametype":"Valid","recclass":"L6","mass":6400,"fall":"Fell","year":"1897-01-01T00:00:00.000Z","reclat":27.35,"reclong":68.53333,"geolocation":{"latitude":27.35,"longitude":68.53333}}
{"name":"Gao-Guenie","id":10854,"nametype":"Valid","recclass":"H5","fall":"Fell","year":"1960-01-01T00:00:00.000Z","reclat":11.65,"reclong":-2.18333,"geolocation":{"latitude":11.65,"longitude":-2.18333}}
{"name":"Garhi Yasin","id":10860,"nametype":"Valid","recclass":"Iron, IIE","mass":380,"fall":"Fell","year":"1917-01-01T00:00:00.000Z","reclat":27.88333,"reclong":68.53333,"geolocation":{"latitude":27.88333,"longitude":68.53333}}
{"name":"Garland","id":10861,"nametype":"Valid","recclass":"Diogenite-pm","mass":102,"fall":"Fell","year":"1950-01-01T00:00:00.000Z","reclat":41.68333,"reclong":-112.13333,"geolocation":{"latitude":41.68333,"longitude":-112.13333}}
{"name":"Gashua","id":44882,"nametype":"Valid","recclass":"L6","mass":4162,"fall":"Fell","year":"1984-01-01T00:00:00.000Z","reclat":12.85,"reclong":11.03333,"geolocation":{"latitude":12.85,"longitude":11.03333}}
{"name":"Gasseltepaoua","id":10866,"nametype":"Valid","recclass":"H5","fall":"Fell","year":"2000-01-01T00:00:00.000Z","reclat":14.15083,"reclong":-2.04167,"geolocation":{"latitude":14.15083,"longitude":-2.04167}}
{"name":"Geidam","id":10870,"nametype":"Valid","recclass":"H5","mass":725,"fall":"Fell","year":"1950-01-01T00:00:00.000Z","reclat":12.91667,"reclong":11.91667,"geolocation":{"latitude":12.91667,"longitude":11.91667}}
{"name":"Gifu","id":10914,"nametype":"Valid","recclass":"L6","mass":14290,"fall":"Fell","year":"1909-01-01T00:00:00.000Z","reclat":35.53333,"reclong":136.88333,"geolocation":{"latitude":35.53333,"longitude":136.88333}}
{"name":"Girgenti","id":10917,"nametype":"Valid","recclass":"L6","mass":18000,"fall":"Fell","year":"1853-01-01T00:00:00.000Z","reclat":37.31667,"reclong":13.56667,"geolocation":{"latitude":37.31667,"longitude":13.56667}}
{"name":"Git-Git","id":10919,"nametype":"Valid","recclass":"L6","mass":480,"fall":"Fell","year":"1947-01-01T00:00:00.000Z","reclat":9.6,"reclong":9.91667,"geolocation":{"latitude":9.6,"longitude":9.91667}}
{"name":"Glanerbrug","id":10923,"nametype":"Valid","recclass":"L/LL5","mass":670,"fall":"Fell","year":"1990-01-01T00:00:00.000Z","reclat":52.2,"reclong":6.86667,"geolocation":{"latitude":52.2,"longitude":6.86667}}
{"name":"Glanggang","id":10924,"nametype":"Valid","recclass":"H5-6","mass":1303,"fall":"Fell","year":"1939-01-01T00:00:00.000Z","reclat":-7.25,"reclong":107.7,"geolocation":{"latitude":-7.25,"longitude":107.7}}
{"name":"Glasatovo","id":10926,"nametype":"Valid","recclass":"H4","mass":152000,"fall":"Fell","year":"1918-01-01T00:00:00.000Z","reclat":57.35,"reclong":37.61667,"geolocation":{"latitude":57.35,"longitude":37.61667}}
{"name":"Glatton","id":10930,"nametype":"Valid","recclass":"L6","mass":767,"fall":"Fell","year":"1991-01-01T00:00:00.000Z","reclat":52.45972,"reclong":-0.3,"geolocation":{"latitude":52.45972,"longitude":-0.3}}
{"name":"Gnadenfrei","id":10936,"nametype":"Valid","recclass":"H5","mass":1750,"fall":"Fell","year":"1879-01-01T00:00:00.000Z","reclat":50.66667,"reclong":16.76667,"geolocation":{"latitude":50.66667,"longitude":16.76667}}
{"name":"Gopalpur","id":10948,"nametype":"Valid","recclass":"H6","mass":1600,"fall":"Fell","year":"1865-01-01T00:00:00.000Z","reclat":24.23333,"reclong":89.05,"geolocation":{"latitude":24.23333,"longitude":89.05}}
{"name":"Gorlovka","id":10949,"nametype":"Valid","recclass":"H3.7","mass":3618,"fall":"Fell","year":"1974-01-01T00:00:00.000Z","reclat":48.28333,"reclong":38.08333,"geolocation":{"latitude":48.28333,"longitude":38.08333}}
{"name":"Granes","id":10956,"nametype":"Valid","recclass":"L6","mass":9000,"fall":"Fell","year":"1964-01-01T00:00:00.000Z","reclat":42.9,"reclong":2.25,"geolocation":{"latitude":42.9,"longitude":2.25}}
{"name":"Grefsheim","id":11196,"nametype":"Valid","recclass":"L5","mass":45.5,"fall":"Fell","year":"1976-01-01T00:00:00.000Z","reclat":60.66667,"reclong":11,"geolocation":{"latitude":60.66667,"longitude":11}}
{"name":"Grimsby","id":50911,"nametype":"Valid","recclass":"H5","mass":215,"fall":"Fell","year":"2009-01-01T00:00:00.000Z","reclat":43.2,"reclong":-79.61667,"geolocation":{"latitude":43.2,"longitude":-79.61667}}
{"name":"Grosnaja","id":11206,"nametype":"Valid","recclass":"CV3","mass":3500,"fall":"Fell","year":"1861-01-01T00:00:00.000Z","reclat":43.66667,"reclong":45.38333,"geolocation":{"latitude":43.66667,"longitude":45.38333}}
{"name":"Gross-Divina","id":11207,"nametype":"Valid","recclass":"H5","mass":10500,"fall":"Fell","year":"1837-01-01T00:00:00.000Z","reclat":49.26667,"reclong":18.71667,"geolocation":{"latitude":49.26667,"longitude":18.71667}}
{"name":"Grossliebenthal","id":11208,"nametype":"Valid","recclass":"L6","mass":8000,"fall":"Fell","year":"1881-01-01T00:00:00.000Z","reclat":46.35,"reclong":30.58333,"geolocation":{"latitude":46.35,"longitude":30.58333}}
{"name":"Grüneberg","id":11426,"nametype":"Valid","recclass":"H4","mass":1000,"fall":"Fell","year":"1841-01-01T00:00:00.000Z","reclat":51.93333,"reclong":15.5,"geolocation":{"latitude":51.93333,"longitude":15.5}}
{"name":"Grzempach","id":11429,"nametype":"Valid","recclass":"H5","mass":690,"fall":"Fell","year":"1910-01-01T00:00:00.000Z","reclat":52.86667,"reclong":16.63333,"geolocation":{"latitude":52.86667,"longitude":16.63333}}
{"name":"Gualeguaychú","id":11432,"nametype":"Valid","recclass":"H6","mass":22000,"fall":"Fell","year":"1932-01-01T00:00:00.000Z","reclat":-33,"reclong":-58.61667,"geolocation":{"latitude":-33,"longitude":-58.61667}}
{"name":"Guangmingshan","id":11435,"nametype":"Valid","recclass":"H5","mass":2910,"fall":"Fell","year":"1996-01-01T00:00:00.000Z","reclat":39.80417,"reclong":122.76389,"geolocation":{"latitude":39.80417,"longitude":122.76389}}
{"name":"Guangnan","id":11436,"nametype":"Valid","recclass":"L6","fall":"Fell","year":"1983-01-01T00:00:00.000Z","reclat":24.1,"reclong":105,"geolocation":{"latitude":24.1,"longitude":105}}
{"name":"Guangrao","id":11437,"nametype":"Valid","recclass":"L6","mass":1900,"fall":"Fell","year":"1980-01-01T00:00:00.000Z","reclat":37.1,"reclong":118.4,"geolocation":{"latitude":37.1,"longitude":118.4}}
{"name":"Guareña","id":11439,"nametype":"Valid","recclass":"H6","mass":39000,"fall":"Fell","year":"1892-01-01T00:00:00.000Z","reclat":38.73333,"reclong":-6.01667,"geolocation":{"latitude":38.73333,"longitude":-6.01667}}
{"name":"Guêa","id":11440,"nametype":"Valid","recclass":"Stone-uncl","mass":1915,"fall":"Fell","year":"1891-01-01T00:00:00.000Z","reclat":43.76667,"reclong":20.23333,"geolocation":{"latitude":43.76667,"longitude":20.23333}}
{"name":"Guibga","id":11442,"nametype":"Valid","recclass":"L5","mass":288,"fall":"Fell","year":"1972-01-01T00:00:00.000Z","reclat":13.5,"reclong":-0.68333,"geolocation":{"latitude":13.5,"longitude":-0.68333}}
{"name":"Guidder","id":11443,"nametype":"Valid","recclass":"LL5","mass":968,"fall":"Fell","year":"1949-01-01T00:00:00.000Z","reclat":9.91667,"reclong":13.98333,"geolocation":{"latitude":9.91667,"longitude":13.98333}}
{"name":"Gujargaon","id":11448,"nametype":"Valid","recclass":"H5","mass":2449,"fall":"Fell","year":"1982-01-01T00:00:00.000Z","reclat":22.98333,"reclong":76.05,"geolocation":{"latitude":22.98333,"longitude":76.05}}
{"name":"Gujba","id":11449,"nametype":"Valid","recclass":"CBa","mass":100000,"fall":"Fell","year":"1984-01-01T00:00:00.000Z","reclat":11.49167,"reclong":11.65833,"geolocation":{"latitude":11.49167,"longitude":11.65833}}
{"name":"Gumoschnik","id":11450,"nametype":"Valid","recclass":"H5","mass":5700,"fall":"Fell","year":"1904-01-01T00:00:00.000Z","reclat":42.9,"reclong":24.7,"geolocation":{"latitude":42.9,"longitude":24.7}}
{"name":"Gurram Konda","id":11464,"nametype":"Valid","recclass":"L6","mass":28,"fall":"Fell","year":"1814-01-01T00:00:00.000Z","reclat":13.78333,"reclong":78.56667,"geolocation":{"latitude":13.78333,"longitude":78.56667}}
{"name":"Gursum","id":11465,"nametype":"Valid","recclass":"H4/5","mass":34650,"fall":"Fell","year":"1981-01-01T00:00:00.000Z","reclat":9.36667,"reclong":42.41667,"geolocation":{"latitude":9.36667,"longitude":42.41667}}
{"name":"Gütersloh","id":11466,"nametype":"Valid","recclass":"H3/4","mass":1000,"fall":"Fell","year":"1851-01-01T00:00:00.000Z","reclat":51.91667,"reclong":8.38333,"geolocation":{"latitude":51.91667,"longitude":8.38333}}
{"name":"Gyokukei","id":11467,"nametype":"Valid","recclass":"OC","mass":1320,"fall":"Fell","year":"1930-01-01T00:00:00.000Z","reclat":35,"reclong":127.5,"geolocation":{"latitude":35,"longitude":127.5}}
{"name":"Hachi-oji","id":11468,"nametype":"Valid","recclass":"H?","mass":0.2,"fall":"Fell","year":"1817-01-01T00:00:00.000Z","reclat":35.65,"reclong":139.33333,"geolocation":{"latitude":35.65,"longitude":139.33333}}
{"name":"Hainaut","id":11472,"nametype":"Valid","recclass":"H3-6","mass":9000,"fall":"Fell","year":"1934-01-01T00:00:00.000Z","reclat":50.31667,"reclong":3.73333,"geolocation":{"latitude":50.31667,"longitude":3.73333}}
{"name":"Hallingeberg","id":11479,"nametype":"Valid","recclass":"L3.4","mass":1456,"fall":"Fell","year":"1944-01-01T00:00:00.000Z","reclat":57.81667,"reclong":16.23333,"geolocation":{"latitude":57.81667,"longitude":16.23333}}
{"name":"Hamlet","id":11485,"nametype":"Valid","recclass":"LL4","mass":3710,"fall":"Fell","year":"1959-01-01T00:00:00.000Z","reclat":41.38333,"reclong":-86.6,"geolocation":{"latitude":41.38333,"longitude":-86.6}}
{"name":"Haraiya","id":11824,"nametype":"Valid","recclass":"Eucrite-mmict","mass":1000,"fall":"Fell","year":"1878-01-01T00:00:00.000Z","reclat":26.8,"reclong":82.53333,"geolocation":{"latitude":26.8,"longitude":82.53333}}
{"name":"Haripura","id":11829,"nametype":"Valid","recclass":"CM2","mass":315,"fall":"Fell","year":"1921-01-01T00:00:00.000Z","reclat":28.38333,"reclong":75.78333,"geolocation":{"latitude":28.38333,"longitude":75.78333}}
{"name":"Harleton","id":11830,"nametype":"Valid","recclass":"L6","mass":8360,"fall":"Fell","year":"1961-01-01T00:00:00.000Z","reclat":32.675,"reclong":-94.51167,"geolocation":{"latitude":32.675,"longitude":-94.51167}}
{"name":"Harrison County","id":11842,"nametype":"Valid","recclass":"L6","mass":680,"fall":"Fell","year":"1859-01-01T00:00:00.000Z","reclat":38.25,"reclong":-86.16667,"geolocation":{"latitude":38.25,"longitude":-86.16667}}
{"name":"Hashima","id":11848,"nametype":"Valid","recclass":"H4","mass":1110.6,"fall":"Fell","year":"1910-01-01T00:00:00.000Z","reclat":35.2945,"reclong":136.70033,"geolocation":{"latitude":35.2945,"longitude":136.70033}}
{"name":"Hassi-Jekna","id":11852,"nametype":"Valid","recclass":"Iron, IAB-sHL","mass":1250,"fall":"Fell","year":"1890-01-01T00:00:00.000Z","reclat":28.95,"reclong":0.81667,"geolocation":{"latitude":28.95,"longitude":0.81667}}
{"name":"Hatford","id":11855,"nametype":"Valid","recclass":"Stone-uncl","mass":29000,"fall":"Fell","year":"1628-01-01T00:00:00.000Z","reclat":51.65,"reclong":-1.51667,"geolocation":{"latitude":51.65,"longitude":-1.51667}}
{"name":"Haverö","id":11859,"nametype":"Valid","recclass":"Ureilite","mass":1544,"fall":"Fell","year":"1971-01-01T00:00:00.000Z","reclat":60.24556,"reclong":22.06194,"geolocation":{"latitude":60.24556,"longitude":22.06194}}
{"name":"Hedeskoga","id":11869,"nametype":"Valid","recclass":"H5","mass":3500,"fall":"Fell","year":"1922-01-01T00:00:00.000Z","reclat":55.46667,"reclong":13.78333,"geolocation":{"latitude":55.46667,"longitude":13.78333}}
{"name":"Hedjaz","id":11870,"nametype":"Valid","recclass":"L3.7-6","mass":6100,"fall":"Fell","year":"1910-01-01T00:00:00.000Z","reclat":27.33333,"reclong":35.66667,"geolocation":{"latitude":27.33333,"longitude":35.66667}}
{"name":"Heredia","id":11875,"nametype":"Valid","recclass":"H5","mass":1000,"fall":"Fell","year":"1857-01-01T00:00:00.000Z","reclat":10,"reclong":-84.1,"geolocation":{"latitude":10,"longitude":-84.1}}
{"name":"Hessle","id":11878,"nametype":"Valid","recclass":"H5","mass":20000,"fall":"Fell","year":"1869-01-01T00:00:00.000Z","reclat":59.85,"reclong":17.66667,"geolocation":{"latitude":59.85,"longitude":17.66667}}
{"name":"Higashi-koen","id":11883,"nametype":"Valid","recclass":"H5","mass":750,"fall":"Fell","year":"1897-01-01T00:00:00.000Z","reclat":33.6,"reclong":130.43333,"geolocation":{"latitude":33.6,"longitude":130.43333}}
{"name":"High Possil","id":11884,"nametype":"Valid","recclass":"L6","mass":4500,"fall":"Fell","year":"1804-01-01T00:00:00.000Z","reclat":55.9,"reclong":-4.23333,"geolocation":{"latitude":55.9,"longitude":-4.23333}}
{"name":"Hiroshima","id":11889,"nametype":"Valid","recclass":"H5","mass":414,"fall":"Fell","year":"2003-01-01T00:00:00.000Z","reclat":34.45,"reclong":132.38333,"geolocation":{"latitude":34.45,"longitude":132.38333}}
{"name":"Hoima","id":44714,"nametype":"Valid","recclass":"H6","mass":167.7,"fall":"Fell","year":"2003-01-01T00:00:00.000Z","reclat":1.345,"reclong":31.47278,"geolocation":{"latitude":1.345,"longitude":31.47278}}
{"name":"Hökmark","id":11893,"nametype":"Valid","recclass":"L4","mass":305.5,"fall":"Fell","year":"1954-01-01T00:00:00.000Z","reclat":64.43333,"reclong":21.2,"geolocation":{"latitude":64.43333,"longitude":21.2}}
{"name":"Holbrook","id":11894,"nametype":"Valid","recclass":"L/LL6","mass":220000,"fall":"Fell","year":"1912-01-01T00:00:00.000Z","reclat":34.9,"reclong":-110.18333,"geolocation":{"latitude":34.9,"longitude":-110.18333}}
{"name":"Holetta","id":11895,"nametype":"Valid","recclass":"Stone-uncl","mass":1415,"fall":"Fell","year":"1923-01-01T00:00:00.000Z","reclat":9.06667,"reclong":38.41667,"geolocation":{"latitude":9.06667,"longitude":38.41667}}
{"name":"Homestead","id":11901,"nametype":"Valid","recclass":"L5","mass":230000,"fall":"Fell","year":"1875-01-01T00:00:00.000Z","reclat":41.8,"reclong":-91.86667,"geolocation":{"latitude":41.8,"longitude":-91.86667}}
{"name":"Honolulu","id":11904,"nametype":"Valid","recclass":"L5","mass":2420,"fall":"Fell","year":"1825-01-01T00:00:00.000Z","reclat":21.3,"reclong":-157.86667,"geolocation":{"latitude":21.3,"longitude":-157.86667}}
{"name":"Hotse","id":11913,"nametype":"Valid","recclass":"L6","mass":180,"fall":"Fell","year":"1956-01-01T00:00:00.000Z","reclat":35.66667,"reclong":115.5,"geolocation":{"latitude":35.66667,"longitude":115.5}}
{"name":"Hoxie","id":11915,"nametype":"Valid","recclass":"OC","mass":266.1,"fall":"Fell","year":"1963-01-01T00:00:00.000Z","reclat":39.35,"reclong":-100.45,"geolocation":{"latitude":39.35,"longitude":-100.45}}
{"name":"Hraschina","id":11916,"nametype":"Valid","recclass":"Iron, IID","mass":49000,"fall":"Fell","year":"1751-01-01T00:00:00.000Z","reclat":46.1,"reclong":16.33333,"geolocation":{"latitude":46.1,"longitude":16.33333}}
{"name":"Huaxi","id":54719,"nametype":"Valid","recclass":"H5","mass":1600,"fall":"Fell","year":"2010-01-01T00:00:00.000Z","reclat":26.46469,"reclong":106.63241,"geolocation":{"latitude":26.46469,"longitude":106.63241}}
{"name":"Hungen","id":11986,"nametype":"Valid","recclass":"H6","mass":112,"fall":"Fell","year":"1877-01-01T00:00:00.000Z","reclat":50.3,"reclong":8.91667,"geolocation":{"latitude":50.3,"longitude":8.91667}}
{"name":"Hvittis","id":11989,"nametype":"Valid","recclass":"EL6","mass":14000,"fall":"Fell","year":"1901-01-01T00:00:00.000Z","reclat":61.18333,"reclong":22.68333,"geolocation":{"latitude":61.18333,"longitude":22.68333}}
{"name":"Ibbenbüren","id":11992,"nametype":"Valid","recclass":"Diogenite","mass":2000,"fall":"Fell","year":"1870-01-01T00:00:00.000Z","reclat":52.28333,"reclong":7.7,"geolocation":{"latitude":52.28333,"longitude":7.7}}
{"name":"Ibitira","id":11993,"nametype":"Valid","recclass":"Eucrite-mmict","mass":2500,"fall":"Fell","year":"1957-01-01T00:00:00.000Z","reclat":-20,"reclong":-45,"geolocation":{"latitude":-20,"longitude":-45}}
{"name":"Ibrisim","id":11994,"nametype":"Valid","recclass":"OC","fall":"Fell","year":"1949-01-01T00:00:00.000Z","reclat":38,"reclong":35,"geolocation":{"latitude":38,"longitude":35}}
{"name":"Ichkala","id":11995,"nametype":"Valid","recclass":"H6","mass":3973,"fall":"Fell","year":"1936-01-01T00:00:00.000Z","reclat":58.2,"reclong":82.93333,"geolocation":{"latitude":58.2,"longitude":82.93333}}
{"name":"Idutywa","id":12000,"nametype":"Valid","recclass":"H5","mass":3457,"fall":"Fell","year":"1956-01-01T00:00:00.000Z","reclat":-32.1,"reclong":28.33333,"geolocation":{"latitude":-32.1,"longitude":28.33333}}
{"name":"Iguaracu","id":12003,"nametype":"Valid","recclass":"H5","mass":1200,"fall":"Fell","year":"1977-01-01T00:00:00.000Z","reclat":-23.2,"reclong":-51.83333,"geolocation":{"latitude":-23.2,"longitude":-51.83333}}
{"name":"Ijopega","id":12004,"nametype":"Valid","recclass":"H6","mass":7330,"fall":"Fell","year":"1975-01-01T00:00:00.000Z","reclat":-6.03333,"reclong":145.36667,"geolocation":{"latitude":-6.03333,"longitude":145.36667}}
{"name":"Indarch","id":12027,"nametype":"Valid","recclass":"EH4","mass":27000,"fall":"Fell","year":"1891-01-01T00:00:00.000Z","reclat":39.75,"reclong":46.66667,"geolocation":{"latitude":39.75,"longitude":46.66667}}
{"name":"Independence","id":12028,"nametype":"Valid","recclass":"L6","mass":880,"fall":"Fell","year":"1917-01-01T00:00:00.000Z","reclat":39.08333,"reclong":-94.4,"geolocation":{"latitude":39.08333,"longitude":-94.4}}
{"name":"Inner Mongolia","id":12037,"nametype":"Valid","recclass":"L6","mass":3000,"fall":"Fell","year":"1963-01-01T00:00:00.000Z","reclat":41,"reclong":112,"geolocation":{"latitude":41,"longitude":112}}
{"name":"Innisfree","id":12039,"nametype":"Valid","recclass":"L5","mass":4576,"fall":"Fell","year":"1977-01-01T00:00:00.000Z","reclat":53.415,"reclong":-111.3375,"geolocation":{"latitude":53.415,"longitude":-111.3375}}
{"name":"Ipiranga","id":12043,"nametype":"Valid","recclass":"H6","mass":7000,"fall":"Fell","year":"1972-01-01T00:00:00.000Z","reclat":-25.5,"reclong":-54.5,"geolocation":{"latitude":-25.5,"longitude":-54.5}}
{"name":"Ishinga","id":12049,"nametype":"Valid","recclass":"H","mass":1300,"fall":"Fell","year":"1954-01-01T00:00:00.000Z","reclat":-8.93333,"reclong":33.8,"geolocation":{"latitude":-8.93333,"longitude":33.8}}
{"name":"Isthilart","id":12053,"nametype":"Valid","recclass":"H5","mass":3050,"fall":"Fell","year":"1928-01-01T00:00:00.000Z","reclat":-31.18333,"reclong":-57.95,"geolocation":{"latitude":-31.18333,"longitude":-57.95}}
{"name":"Itapicuru-Mirim","id":12056,"nametype":"Valid","recclass":"H5","mass":2024,"fall":"Fell","year":"1879-01-01T00:00:00.000Z","reclat":-3.4,"reclong":-44.33333,"geolocation":{"latitude":-3.4,"longitude":-44.33333}}
{"name":"Itqiy","id":12058,"nametype":"Valid","recclass":"EH7-an","mass":4720,"fall":"Fell","year":"1990-01-01T00:00:00.000Z","reclat":26.59083,"reclong":-12.95217,"geolocation":{"latitude":26.59083,"longitude":-12.95217}}
{"name":"Ivuna","id":12063,"nametype":"Valid","recclass":"CI1","mass":704.5,"fall":"Fell","year":"1938-01-01T00:00:00.000Z","reclat":-8.41667,"reclong":32.43333,"geolocation":{"latitude":-8.41667,"longitude":32.43333}}
{"name":"Jackalsfontein","id":12065,"nametype":"Valid","recclass":"L6","mass":48000,"fall":"Fell","year":"1903-01-01T00:00:00.000Z","reclat":-32.5,"reclong":21.9,"geolocation":{"latitude":-32.5,"longitude":21.9}}
{"name":"Jajh deh Kot Lalu","id":12067,"nametype":"Valid","recclass":"EL6","mass":973,"fall":"Fell","year":"1926-01-01T00:00:00.000Z","reclat":26.75,"reclong":68.41667,"geolocation":{"latitude":26.75,"longitude":68.41667}}
{"name":"Jalanash","id":12068,"nametype":"Valid","recclass":"Ureilite","mass":700,"fall":"Fell","year":"1990-01-01T00:00:00.000Z"},
{"name":"Jalandhar","id":12069,"nametype":"Valid","recclass":"Iron","mass":1967,"fall":"Fell","year":"1621-01-01T00:00:00.000Z","reclat":31,"reclong":75,"geolocation":{"latitude":31,"longitude":75}}
{"name":"Jamkheir","id":12072,"nametype":"Valid","recclass":"H6","mass":22,"fall":"Fell","year":"1866-01-01T00:00:00.000Z","reclat":18.75,"reclong":75.33333,"geolocation":{"latitude":18.75,"longitude":75.33333}}
{"name":"Jartai","id":12074,"nametype":"Valid","recclass":"L6","mass":20500,"fall":"Fell","year":"1979-01-01T00:00:00.000Z","reclat":39.7,"reclong":105.8,"geolocation":{"latitude":39.7,"longitude":105.8}}
{"name":"Jelica","id":12078,"nametype":"Valid","recclass":"LL6","mass":34000,"fall":"Fell","year":"1889-01-01T00:00:00.000Z","reclat":43.83333,"reclong":20.44167,"geolocation":{"latitude":43.83333,"longitude":20.44167}}
{"name":"Jemlapur","id":12079,"nametype":"Valid","recclass":"L6","mass":450,"fall":"Fell","year":"1901-01-01T00:00:00.000Z"},
{"name":"Jesenice","id":51589,"nametype":"Valid","recclass":"L6","mass":3667,"fall":"Fell","year":"2009-01-01T00:00:00.000Z","reclat":46.42137,"reclong":14.05217,"geolocation":{"latitude":46.42137,"longitude":14.05217}}
{"name":"Jhung","id":12085,"nametype":"Valid","recclass":"L5","mass":5900,"fall":"Fell","year":"1873-01-01T00:00:00.000Z","reclat":31.3,"reclong":72.38333,"geolocation":{"latitude":31.3,"longitude":72.38333}}
{"name":"Jiange","id":12086,"nametype":"Valid","recclass":"H5","mass":222,"fall":"Fell","year":"1964-01-01T00:00:00.000Z","reclat":31.91667,"reclong":104.91667,"geolocation":{"latitude":31.91667,"longitude":104.91667}}
{"name":"Jianshi","id":12087,"nametype":"Valid","recclass":"Iron, IIIAB","mass":600000,"fall":"Fell","year":"1890-01-01T00:00:00.000Z","reclat":30.80833,"reclong":109.5,"geolocation":{"latitude":30.80833,"longitude":109.5}}
{"name":"Jilin","id":12171,"nametype":"Valid","recclass":"H5","mass":4000000,"fall":"Fell","year":"1976-01-01T00:00:00.000Z","reclat":44.05,"reclong":126.16667,"geolocation":{"latitude":44.05,"longitude":126.16667}}
{"name":"Jodiya","id":47362,"nametype":"Valid","recclass":"L5","mass":100,"fall":"Fell","year":"2006-01-01T00:00:00.000Z","reclat":22.68,"reclong":70.31333,"geolocation":{"latitude":22.68,"longitude":70.31333}}
{"name":"Jodzie","id":12173,"nametype":"Valid","recclass":"Howardite","mass":30,"fall":"Fell","year":"1877-01-01T00:00:00.000Z","reclat":55.7,"reclong":24.4,"geolocation":{"latitude":55.7,"longitude":24.4}}
{"name":"Johnstown","id":12198,"nametype":"Valid","recclass":"Diogenite","mass":40300,"fall":"Fell","year":"1924-01-01T00:00:00.000Z","reclat":40.35,"reclong":-104.9,"geolocation":{"latitude":40.35,"longitude":-104.9}}
{"name":"Jolomba","id":12199,"nametype":"Valid","recclass":"LL6","mass":483,"fall":"Fell","year":"1974-01-01T00:00:00.000Z","reclat":-11.85,"reclong":15.83333,"geolocation":{"latitude":-11.85,"longitude":15.83333}}
{"name":"Jonzac","id":12202,"nametype":"Valid","recclass":"Eucrite-mmict","mass":5000,"fall":"Fell","year":"1819-01-01T00:00:00.000Z","reclat":45.43333,"reclong":-0.45,"geolocation":{"latitude":45.43333,"longitude":-0.45}}
{"name":"Juancheng","id":12203,"nametype":"Valid","recclass":"H5","mass":100000,"fall":"Fell","year":"1997-01-01T00:00:00.000Z","reclat":35.5,"reclong":115.41667,"geolocation":{"latitude":35.5,"longitude":115.41667}}
{"name":"Judesegeri","id":12207,"nametype":"Valid","recclass":"H6","mass":680,"fall":"Fell","year":"1876-01-01T00:00:00.000Z","reclat":12.85,"reclong":76.8,"geolocation":{"latitude":12.85,"longitude":76.8}}
{"name":"Jumapalo","id":12209,"nametype":"Valid","recclass":"L6","mass":32490,"fall":"Fell","year":"1984-01-01T00:00:00.000Z","reclat":-7.71667,"reclong":111.2,"geolocation":{"latitude":-7.71667,"longitude":111.2}}
{"name":"Junan","id":12210,"nametype":"Valid","recclass":"L6","mass":950,"fall":"Fell","year":"1976-01-01T00:00:00.000Z","reclat":35.2,"reclong":118.8,"geolocation":{"latitude":35.2,"longitude":118.8}}
{"name":"Juromenha","id":12213,"nametype":"Valid","recclass":"Iron, IIIAB","mass":25250,"fall":"Fell","year":"1968-01-01T00:00:00.000Z","reclat":38.74028,"reclong":-7.27,"geolocation":{"latitude":38.74028,"longitude":-7.27}}
{"name":"Juvinas","id":12214,"nametype":"Valid","recclass":"Eucrite-mmict","mass":91000,"fall":"Fell","year":"1821-01-01T00:00:00.000Z","reclat":44.71667,"reclong":4.3,"geolocation":{"latitude":44.71667,"longitude":4.3}}
{"name":"Kaba","id":12218,"nametype":"Valid","recclass":"CV3","mass":3000,"fall":"Fell","year":"1857-01-01T00:00:00.000Z","reclat":47.35,"reclong":21.3,"geolocation":{"latitude":47.35,"longitude":21.3}}
{"name":"Kabo","id":12220,"nametype":"Valid","recclass":"H4","mass":13400,"fall":"Fell","year":"1971-01-01T00:00:00.000Z","reclat":11.85,"reclong":8.21667,"geolocation":{"latitude":11.85,"longitude":8.21667}}
{"name":"Kadonah","id":12221,"nametype":"Valid","recclass":"H6","mass":89,"fall":"Fell","year":"1822-01-01T00:00:00.000Z","reclat":27.08333,"reclong":78.33333,"geolocation":{"latitude":27.08333,"longitude":78.33333}}
{"name":"Kaee","id":12222,"nametype":"Valid","recclass":"H5","mass":230,"fall":"Fell","year":"1838-01-01T00:00:00.000Z","reclat":27.25,"reclong":79.96667,"geolocation":{"latitude":27.25,"longitude":79.96667}}
{"name":"Kagarlyk","id":12227,"nametype":"Valid","recclass":"L6","mass":1900,"fall":"Fell","year":"1908-01-01T00:00:00.000Z","reclat":49.86667,"reclong":30.83333,"geolocation":{"latitude":49.86667,"longitude":30.83333}}
{"name":"Kaidun","id":12228,"nametype":"Valid","recclass":"CR2","mass":2000,"fall":"Fell","year":"1980-01-01T00:00:00.000Z","reclat":15,"reclong":48.3,"geolocation":{"latitude":15,"longitude":48.3}}
{"name":"Kainsaz","id":12229,"nametype":"Valid","recclass":"CO3.2","mass":200000,"fall":"Fell","year":"1937-01-01T00:00:00.000Z","reclat":55.43333,"reclong":53.25,"geolocation":{"latitude":55.43333,"longitude":53.25}}
{"name":"Kakangari","id":12230,"nametype":"Valid","recclass":"K3","mass":350,"fall":"Fell","year":"1890-01-01T00:00:00.000Z","reclat":12.38333,"reclong":78.51667,"geolocation":{"latitude":12.38333,"longitude":78.51667}}
{"name":"Kakowa","id":12231,"nametype":"Valid","recclass":"L6","mass":577,"fall":"Fell","year":"1858-01-01T00:00:00.000Z","reclat":45.13333,"reclong":21.66667,"geolocation":{"latitude":45.13333,"longitude":21.66667}}
{"name":"Kalaba","id":12232,"nametype":"Valid","recclass":"H4","mass":950,"fall":"Fell","year":"1951-01-01T00:00:00.000Z","reclat":-6.83333,"reclong":29.5,"geolocation":{"latitude":-6.83333,"longitude":29.5}}
{"name":"Kalumbi","id":12236,"nametype":"Valid","recclass":"L6","mass":4500,"fall":"Fell","year":"1879-01-01T00:00:00.000Z","reclat":17.83333,"reclong":73.98333,"geolocation":{"latitude":17.83333,"longitude":73.98333}}
{"name":"Kamalpur","id":12238,"nametype":"Valid","recclass":"L6","mass":2770,"fall":"Fell","year":"1942-01-01T00:00:00.000Z","reclat":26.03333,"reclong":81.46667,"geolocation":{"latitude":26.03333,"longitude":81.46667}}
{"name":"Kamiomi","id":12240,"nametype":"Valid","recclass":"H5","mass":448,"fall":"Fell","year":"1913-01-01T00:00:00.000Z","reclat":36.04167,"reclong":139.95667,"geolocation":{"latitude":36.04167,"longitude":139.95667}}
{"name":"Kamsagar","id":12241,"nametype":"Valid","recclass":"L6","mass":1293,"fall":"Fell","year":"1902-01-01T00:00:00.000Z","reclat":14.18333,"reclong":75.8,"geolocation":{"latitude":14.18333,"longitude":75.8}}
{"name":"Kandahar (Afghanistan)","id":12243,"nametype":"Valid","recclass":"L6","mass":299,"fall":"Fell","year":"1959-01-01T00:00:00.000Z","reclat":31.6,"reclong":65.78333,"geolocation":{"latitude":31.6,"longitude":65.78333}}
{"name":"Kangean","id":12245,"nametype":"Valid","recclass":"H5","mass":1630,"fall":"Fell","year":"1908-01-01T00:00:00.000Z","reclat":-7,"reclong":115.5,"geolocation":{"latitude":-7,"longitude":115.5}}
{"name":"Kangra Valley","id":12246,"nametype":"Valid","recclass":"H5","mass":400,"fall":"Fell","year":"1897-01-01T00:00:00.000Z","reclat":32.08333,"reclong":76.3,"geolocation":{"latitude":32.08333,"longitude":76.3}}
{"name":"Kapoeta","id":12251,"nametype":"Valid","recclass":"Howardite","mass":11355,"fall":"Fell","year":"1942-01-01T00:00:00.000Z","reclat":4.7,"reclong":33.63333,"geolocation":{"latitude":4.7,"longitude":33.63333}}
{"name":"Kaprada","id":47357,"nametype":"Valid","recclass":"L5/6","mass":1600,"fall":"Fell","year":"2004-01-01T00:00:00.000Z","reclat":20.33916,"reclong":73.22329,"geolocation":{"latitude":20.33916,"longitude":73.22329}}
{"name":"Kaptal-Aryk","id":12253,"nametype":"Valid","recclass":"L6","mass":3500,"fall":"Fell","year":"1937-01-01T00:00:00.000Z","reclat":42.45,"reclong":73.36667,"geolocation":{"latitude":42.45,"longitude":73.36667}}
{"name":"Karakol","id":12256,"nametype":"Valid","recclass":"LL6","mass":3000,"fall":"Fell","year":"1840-01-01T00:00:00.000Z","reclat":47.21667,"reclong":81.01667,"geolocation":{"latitude":47.21667,"longitude":81.01667}}
{"name":"Karatu","id":12258,"nametype":"Valid","recclass":"LL6","mass":2220,"fall":"Fell","year":"1963-01-01T00:00:00.000Z","reclat":-3.5,"reclong":35.58333,"geolocation":{"latitude":-3.5,"longitude":35.58333}}
{"name":"Karewar","id":12260,"nametype":"Valid","recclass":"L6","mass":180,"fall":"Fell","year":"1949-01-01T00:00:00.000Z","reclat":12.9,"reclong":7.15,"geolocation":{"latitude":12.9,"longitude":7.15}}
{"name":"Karkh","id":12262,"nametype":"Valid","recclass":"L6","mass":22000,"fall":"Fell","year":"1905-01-01T00:00:00.000Z","reclat":27.8,"reclong":67.16667,"geolocation":{"latitude":27.8,"longitude":67.16667}}
{"name":"Karloowala","id":12263,"nametype":"Valid","recclass":"L6","mass":2950,"fall":"Fell","year":"1955-01-01T00:00:00.000Z","reclat":31.58333,"reclong":71.6,"geolocation":{"latitude":31.58333,"longitude":71.6}}
{"name":"Karoonda","id":12264,"nametype":"Valid","recclass":"CK4","mass":41730,"fall":"Fell","year":"1930-01-01T00:00:00.000Z","reclat":-35.08333,"reclong":139.91667,"geolocation":{"latitude":-35.08333,"longitude":139.91667}}
{"name":"Kasamatsu","id":12266,"nametype":"Valid","recclass":"H","mass":710,"fall":"Fell","year":"1938-01-01T00:00:00.000Z","reclat":35.36667,"reclong":136.76666,"geolocation":{"latitude":35.36667,"longitude":136.76666}}
{"name":"Kasauli","id":30740,"nametype":"Valid","recclass":"H4","mass":16820,"fall":"Fell","year":"2003-01-01T00:00:00.000Z","reclat":29.58333,"reclong":77.58333,"geolocation":{"latitude":29.58333,"longitude":77.58333}}
{"name":"Katagum","id":35465,"nametype":"Valid","recclass":"L6","mass":1500,"fall":"Fell","year":"1999-01-01T00:00:00.000Z","reclat":11.33333,"reclong":10.08333,"geolocation":{"latitude":11.33333,"longitude":10.08333}}
{"name":"Kavarpura","id":47351,"nametype":"Valid","recclass":"Iron, IIE-an","mass":6800,"fall":"Fell","year":"2006-01-01T00:00:00.000Z","reclat":25.14333,"reclong":75.81333,"geolocation":{"latitude":25.14333,"longitude":75.81333}}
{"name":"Kayakent","id":12268,"nametype":"Valid","recclass":"Iron, IIIAB","mass":85000,"fall":"Fell","year":"1961-01-01T00:00:00.000Z","reclat":39.26333,"reclong":31.78,"geolocation":{"latitude":39.26333,"longitude":31.78}}
{"name":"Kediri","id":12270,"nametype":"Valid","recclass":"L4","mass":3300,"fall":"Fell","year":"1940-01-01T00:00:00.000Z","reclat":-7.75,"reclong":112.01667,"geolocation":{"latitude":-7.75,"longitude":112.01667}}
{"name":"Kemer","id":53654,"nametype":"Valid","recclass":"L4","mass":5760,"fall":"Fell","year":"2008-01-01T00:00:00.000Z","reclat":36.54194,"reclong":29.41822,"geolocation":{"latitude":36.54194,"longitude":29.41822}}
